[{"id": "40e0b100f964a520ed031fe3", "name": "Rock Bottom Restaurant & Brewery", "location": {"address": "1001 16th St, #A-100", "crossStreet": "btwn Curtis St and Arapahoe St", "lat": 39.7474532, "lng": -104.9947898, "labeledLatLngs": [{"label": "display", "lat": 39.7474532, "lng": -104.9947898}], "distance": 1246, "postalCode": "80265", "cc": "US", "city": "Denver", "state": "CO", "country": "United States", "formattedAddress": ["1001 16th St, #A-100 (btwn Curtis St and Arapahoe St)", "Denver, CO 80265", "United States"]}, "categories": [{"id": "4bf58dd8d48988d14e941735", "name": "American Restaurant", "pluralName": "American Restaurants", "shortName": "American", "icon": {"prefix": "https://ss3.4sqi.net/img/categories_v2/food/default_", "suffix": ".png"}, "primary": true}], "delivery": {"id": "749652", "url": "https://www.grubhub.com/restaurant/rock-bottom-restaurant--brewery-1001-16th-st-ste-a100-denver/749652?affiliate=1131&utm_source=foursquare-affiliate-network&utm_medium=affiliate&utm_campaign=1131&utm_content=749652", "provider": {"name": "grubhub", "icon": {"prefix": "https://fastly.4sqi.net/img/general/cap/", "sizes": [40, 50], "name": "/delivery_provider_grubhub_20180129.png"}}}, "referralId": "v-1599069672", "hasPerk": false}, {"id": "522132a711d261ae095938b9", "name": "Jagged Mountain Brewery", "location": {"address": "1139 20th St", "crossStreet": "Lawrence Street", "lat": 39.75214633776, "lng": -104.99153747682703, "labeledLatLngs": [{"label": "display", "lat": 39.75214633776, "lng": -104.99153747682703}], "distance": 1565, "postalCode": "80202", "cc": "US", "city": "Denver", "state": "CO", "country": "United States", "formattedAddress": ["1139 20th St (Lawrence Street)", "Denver, CO 80202", "United States"]}, "categories": [{"id": "50327c8591d4c4b30a586d5d", "name": "Brewery", "pluralName": "Breweries", "shortName": "Brewery", "icon": {"prefix": "https://ss3.4sqi.net/img/categories_v2/food/brewery_", "suffix": ".png"}, "primary": true}], "referralId": "v-1599069672", "hasPerk": false}, {"id": "5d6d4197a27e1a0007831f82", "name": "Counter Culture Brewery + Grille", "location": {"address": "205 E 7th Ave", "crossStreet": "Sherman", "lat": 39.727476, "lng": -104.984587, "labeledLatLngs": [{"label": "display", "lat": 39.727476, "lng": -104.984587}, {"label": "entrance", "lat": 39.7274, "lng": -104.984662}], "distance": 1273, "postalCode": "80203", "cc": "US", "neighborhood": "Capitol Hill", "city": "Denver", "state": "CO", "country": "United States", "formattedAddress": ["205 E 7th Ave (Sherman)", "Denver, CO 80203", "United States"]}, "categories": [{"id": "50327c8591d4c4b30a586d5d", "name": "Brewery", "pluralName": "Breweries", "shortName": "Brewery", "icon": {"prefix": "https://ss3.4sqi.net/img/categories_v2/food/brewery_", "suffix": ".png"}, "primary": true}], "referralId": "v-1599069672", "hasPerk": false}, {"id": "4ae39034f964a520b79621e3", "name": "ChopHouse & Brewery Denver", "location": {"address": "1735 19th St, Ste 100", "crossStreet": "at Wynkoop", "lat": 39.7549595, "lng": -104.9973732, "labeledLatLngs": [{"label": "display", "lat": 39.7549595, "lng": -104.9973732}], "distance": 2060, "postalCode": "80202", "cc": "US", "city": "Denver", "state": "CO", "country": "United States", "formattedAddress": ["1735 19th St, Ste 100 (at Wynkoop)", "Denver, CO 80202", "United States"]}, "categories": [{"id": "4bf58dd8d48988d14e941735", "name": "American Restaurant", "pluralName": "American Restaurants", "shortName": "American", "icon": {"prefix": "https://ss3.4sqi.net/img/categories_v2/food/default_", "suffix": ".png"}, "primary": true}], "delivery": {"id": "758247", "url": "https://www.grubhub.com/restaurant/chophouse-and-brewery-1735-19th-st-ste-100-denver/758247?affiliate=1131&utm_source=foursquare-affiliate-network&utm_medium=affiliate&utm_campaign=1131&utm_content=758247", "provider": {"name": "grubhub", "icon": {"prefix": "https://fastly.4sqi.net/img/general/cap/", "sizes": [40, 50], "name": "/delivery_provider_grubhub_20180129.png"}}}, "referralId": "v-1599069672", "hasPerk": false}, {"id": "40e0b100f964a520f4031fe3", "name": "Blue Moon Brewery at The Sandlot", "location": {"address": "2161 Blake St", "lat": 39.75608916394047, "lng": -104.99238377344396, "labeledLatLngs": [{"label": "display", "lat": 39.75608916394047, "lng": -104.99238377344396}], "distance": 2004, "postalCode": "80205", "cc": "US", "city": "Denver", "state": "CO", "country": "United States", "formattedAddress": ["2161 Blake St", "Denver, CO 80205", "United States"]}, "categories": [{"id": "50327c8591d4c4b30a586d5d", "name": "Brewery", "pluralName": "Breweries", "shortName": "Brewery", "icon": {"prefix": "https://ss3.4sqi.net/img/categories_v2/food/brewery_", "suffix": ".png"}, "primary": true}], "referralId": "v-1599069672", "hasPerk": false}, {"id": "5d94c08216cfd90008bcdf73", "name": "Crazy Mountain Brewery Taproom & Beer Garden", "location": {"address": "471 Kalamath Street", "lat": 39.7237459, "lng": -105.0004981, "labeledLatLngs": [{"label": "display", "lat": 39.7237459, "lng": -105.0004981}], "distance": 2125, "postalCode": "80204", "cc": "US", "city": "Denver", "state": "CO", "country": "United States", "formattedAddress": ["471 Kalamath Street", "Denver, CO 80204", "United States"]}, "categories": [{"id": "50327c8591d4c4b30a586d5d", "name": "Brewery", "pluralName": "Breweries", "shortName": "Brewery", "icon": {"prefix": "https://ss3.4sqi.net/img/categories_v2/food/brewery_", "suffix": ".png"}, "primary": true}], "referralId": "v-1599069672", "hasPerk": false}, {"id": "5238b84911d2b81d3be80b22", "name": "Lowdown Brewery+Kitchen", "location": {"address": "800 N Lincoln St", "crossStreet": "8th Street", "lat": 39.72927815753679, "lng": -104.9859686012042, "labeledLatLngs": [{"label": "display", "lat": 39.72927815753679, "lng": -104.9859686012042}], "distance": 1072, "postalCode": "80203", "cc": "US", "city": "Denver", "state": "CO", "country": "United States", "formattedAddress": ["800 N Lincoln St (8th Street)", "Denver, CO 80203", "United States"]}, "categories": [{"id": "50327c8591d4c4b30a586d5d", "name": "Brewery", "pluralName": "Breweries", "shortName": "Brewery", "icon": {"prefix": "https://ss3.4sqi.net/img/categories_v2/food/brewery_", "suffix": ".png"}, "primary": true}], "venuePage": {"id": "82187894"}, "referralId": "v-1599069672", "hasPerk": false}, {"id": "40e0b100f964a52024031fe3", "name": "Bull & Bush Pub & Brewery", "location": {"address": "4700 E Cherry Creek South Dr", "crossStreet": "at Dexter St", "lat": 39.70309851200205, "lng": -104.93250052704902, "labeledLatLngs": [{"label": "display", "lat": 39.70309851200205, "lng": -104.93250052704902}], "distance": 6033, "postalCode": "80246", "cc": "US", "city": "Denver", "state": "CO", "country": "United States", "formattedAddress": ["4700 E Cherry Creek South Dr (at Dexter St)", "Denver, CO 80246", "United States"]}, "categories": [{"id": "4bf58dd8d48988d11b941735", "name": "Pub", "pluralName": "Pubs", "shortName": "Pub", "icon": {"prefix": "https://ss3.4sqi.net/img/categories_v2/nightlife/pub_", "suffix": ".png"}, "primary": true}], "referralId": "v-1599069672", "hasPerk": false}, {"id": "50358aa890e7435760637d16", "name": "Brewery Rickoli Ltd.", "location": {"address": "4335 Wadsworth Blvd", "crossStreet": "at W 44th Ave", "lat": 39.775771633338294, "lng": -105.08191615903179, "labeledLatLngs": [{"label": "display", "lat": 39.775771633338294, "lng": -105.08191615903179}, {"label": "entrance", "lat": 39.775466, "lng": -105.082513}], "distance": 9223, "postalCode": "80033", "cc": "US", "city": "Wheat Ridge", "state": "CO", "country": "United States", "formattedAddress": ["4335 Wadsworth Blvd (at W 44th Ave)", "Wheat Ridge, CO 80033", "United States"]}, "categories": [{"id": "50327c8591d4c4b30a586d5d", "name": "Brewery", "pluralName": "Breweries", "shortName": "Brewery", "icon": {"prefix": "https://ss3.4sqi.net/img/categories_v2/food/brewery_", "suffix": ".png"}, "primary": true}], "venuePage": {"id": "37143038"}, "referralId": "v-1599069672", "hasPerk": false}, {"id": "5a21abc48173cb3fac6c2607", "name": "Liberati Restaurant & Brewery", "location": {"address": "2403 Champa St", "crossStreet": "24th St", "lat": 39.754384, "lng": -104.984292, "labeledLatLngs": [{"label": "display", "lat": 39.754384, "lng": -104.984292}], "distance": 1726, "postalCode": "80205", "cc": "US", "neighborhood": "Curtis Park", "city": "Denver", "state": "CO", "country": "United States", "formattedAddress": ["2403 Champa St (24th St)", "Denver, CO 80205", "United States"]}, "categories": [{"id": "50327c8591d4c4b30a586d5d", "name": "Brewery", "pluralName": "Breweries", "shortName": "Brewery", "icon": {"prefix": "https://ss3.4sqi.net/img/categories_v2/food/brewery_", "suffix": ".png"}, "primary": true}], "referralId": "v-1599069672", "hasPerk": false}, {"id": "50f857cbe4b0385dddce4f5c", "name": "Black Sky Brewery", "location": {"address": "490 Santa Fe Dr", "crossStreet": "5th Ave", "lat": 39.72393206840796, "lng": -104.99836567013307, "labeledLatLngs": [{"label": "display", "lat": 39.72393206840796, "lng": -104.99836567013307}, {"label": "entrance", "lat": 39.723943, "lng": -104.998471}], "distance": 2002, "postalCode": "80204", "cc": "US", "city": "Denver", "state": "CO", "country": "United States", "formattedAddress": ["490 Santa Fe Dr (5th Ave)", "Denver, CO 80204", "United States"]}, "categories": [{"id": "50327c8591d4c4b30a586d5d", "name": "Brewery", "pluralName": "Breweries", "shortName": "Brewery", "icon": {"prefix": "https://ss3.4sqi.net/img/categories_v2/food/brewery_", "suffix": ".png"}, "primary": true}], "referralId": "v-1599069672", "hasPerk": false}, {"id": "4e8373dd2c5be7c3aac486b3", "name": "Wit\u2019s End Brewery", "location": {"address": "2505 W 2nd Ave Unit 13", "lat": 39.72079191624785, "lng": -105.01754918318852, "labeledLatLngs": [{"label": "display", "lat": 39.72079191624785, "lng": -105.01754918318852}], "distance": 3411, "postalCode": "80219", "cc": "US", "city": "Denver", "state": "CO", "country": "United States", "formattedAddress": ["2505 W 2nd Ave Unit 13", "Denver, CO 80219", "United States"]}, "categories": [{"id": "50327c8591d4c4b30a586d5d", "name": "Brewery", "pluralName": "Breweries", "shortName": "Brewery", "icon": {"prefix": "https://ss3.4sqi.net/img/categories_v2/food/brewery_", "suffix": ".png"}, "primary": true}], "referralId": "v-1599069672", "hasPerk": false}, {"id": "4aef6266f964a520ffd721e3", "name": "Denver Chop House & Brewery", "location": {"address": "at Concourse A", "crossStreet": "Denver International Airport", "lat": 39.85368785490711, "lng": -104.67414767115251, "labeledLatLngs": [{"label": "display", "lat": 39.85368785490711, "lng": -104.67414767115251}], "distance": 29528, "postalCode": "80202", "cc": "US", "city": "Denver", "state": "CO", "country": "United States", "formattedAddress": ["at Concourse A (Denver International Airport)", "Denver, CO 80202", "United States"]}, "categories": [{"id": "4bf58dd8d48988d1cc941735", "name": "Steakhouse", "pluralName": "Steakhouses", "shortName": "Steakhouse", "icon": {"prefix": "https://ss3.4sqi.net/img/categories_v2/food/steakhouse_", "suffix": ".png"}, "primary": true}], "referralId": "v-1599069672", "hasPerk": false}, {"id": "55271451498e2f11fe19bb60", "name": "Spangalang Brewery", "location": {"address": "2736 Welton St", "lat": 39.75509507759308, "lng": -104.97707937267216, "labeledLatLngs": [{"label": "display", "lat": 39.75509507759308, "lng": -104.97707937267216}], "distance": 1938, "postalCode": "80205", "cc": "US", "city": "Denver", "state": "CO", "country": "United States", "formattedAddress": ["2736 Welton St", "Denver, CO 80205", "United States"]}, "categories": [{"id": "50327c8591d4c4b30a586d5d", "name": "Brewery", "pluralName": "Breweries", "shortName": "Brewery", "icon": {"prefix": "https://ss3.4sqi.net/img/categories_v2/food/brewery_", "suffix": ".png"}, "primary": true}], "referralId": "v-1599069672", "hasPerk": false}, {"id": "5d2a2c83afbe290023906aeb", "name": "River North Brewery", "location": {"address": "3400 Blake St", "crossStreet": "34th St", "lat": 39.767466999999996, "lng": -104.97688400000001, "labeledLatLngs": [{"label": "display", "lat": 39.767466999999996, "lng": -104.97688400000001}], "distance": 3262, "postalCode": "80205", "cc": "US", "city": "Denver", "state": "CO", "country": "United States", "formattedAddress": ["3400 Blake St (34th St)", "Denver, CO 80205", "United States"]}, "categories": [{"id": "50327c8591d4c4b30a586d5d", "name": "Brewery", "pluralName": "Breweries", "shortName": "Brewery", "icon": {"prefix": "https://ss3.4sqi.net/img/categories_v2/food/brewery_", "suffix": ".png"}, "primary": true}], "referralId": "v-1599069672", "hasPerk": false}, {"id": "4ec031f52c5b252c19d438cf", "name": "Lone Tree Brewery Co.", "location": {"address": "8222 Park Meadows Dr", "lat": 39.56244685452791, "lng": -104.89288999999407, "labeledLatLngs": [{"label": "display", "lat": 39.56244685452791, "lng": -104.89288999999407}], "distance": 21182, "postalCode": "80124", "cc": "US", "city": "Lone Tree", "state": "CO", "country": "United States", "formattedAddress": ["8222 Park Meadows Dr", "Lone Tree, CO 80124", "United States"]}, "categories": [{"id": "50327c8591d4c4b30a586d5d", "name": "Brewery", "pluralName": "Breweries", "shortName": "Brewery", "icon": {"prefix": "https://ss3.4sqi.net/img/categories_v2/food/brewery_", "suffix": ".png"}, "primary": true}], "venuePage": {"id": "123549078"}, "referralId": "v-1599069672", "hasPerk": false}, {"id": "4f008beaa17cde548a3a370f", "name": "Gaijin 24886 Brewery", "location": {"address": "2443 Vine St", "crossStreet": "23rd & Vine", "lat": 39.75164434698163, "lng": -104.96231138706207, "labeledLatLngs": [{"label": "display", "lat": 39.75164434698163, "lng": -104.96231138706207}], "distance": 2432, "postalCode": "80205", "cc": "US", "city": "Denver", "state": "CO", "country": "United States", "formattedAddress": ["2443 Vine St (23rd & Vine)", "Denver, CO 80205", "United States"]}, "categories": [{"id": "50327c8591d4c4b30a586d5d", "name": "Brewery", "pluralName": "Breweries", "shortName": "Brewery", "icon": {"prefix": "https://ss3.4sqi.net/img/categories_v2/food/brewery_", "suffix": ".png"}, "primary": true}], "referralId": "v-1599069672", "hasPerk": false}, {"id": "56bfdf1ccd103f2da6d2f708", "name": "Seedstock Brewery", "location": {"address": "3610 W Colfax Ave", "lat": 39.74013041136972, "lng": -105.03482357684804, "labeledLatLngs": [{"label": "display", "lat": 39.74013041136972, "lng": -105.03482357684804}], "distance": 4232, "postalCode": "80204", "cc": "US", "city": "Denver", "state": "CO", "country": "United States", "formattedAddress": ["3610 W Colfax Ave", "Denver, CO 80204", "United States"]}, "categories": [{"id": "50327c8591d4c4b30a586d5d", "name": "Brewery", "pluralName": "Breweries", "shortName": "Brewery", "icon": {"prefix": "https://ss3.4sqi.net/img/categories_v2/food/brewery_", "suffix": ".png"}, "primary": true}], "referralId": "v-1599069672", "hasPerk": false}, {"id": "49dfe1d2f964a52024611fe3", "name": "Vine Street Pub & Brewery", "location": {"address": "1700 Vine St", "crossStreet": "at 17th Ave", "lat": 39.74333520746895, "lng": -104.96200914080556, "labeledLatLngs": [{"label": "display", "lat": 39.74333520746895, "lng": -104.96200914080556}], "distance": 2062, "postalCode": "80206", "cc": "US", "city": "Denver", "state": "CO", "country": "United States", "formattedAddress": ["1700 Vine St (at 17th Ave)", "Denver, CO 80206", "United States"]}, "categories": [{"id": "50327c8591d4c4b30a586d5d", "name": "Brewery", "pluralName": "Breweries", "shortName": "Brewery", "icon": {"prefix": "https://ss3.4sqi.net/img/categories_v2/food/brewery_", "suffix": ".png"}, "primary": true}], "referralId": "v-1599069672", "hasPerk": false}, {"id": "4ac6b882f964a52002b620e3", "name": "Rock Bottom Restaurant & Brewery", "location": {"address": "9627 E County Line Rd", "lat": 39.56779045974549, "lng": -104.87397015094757, "labeledLatLngs": [{"label": "display", "lat": 39.56779045974549, "lng": -104.87397015094757}], "distance": 21307, "postalCode": "80112", "cc": "US", "city": "Centennial", "state": "CO", "country": "United States", "formattedAddress": ["9627 E County Line Rd", "Centennial, CO 80112", "United States"]}, "categories": [{"id": "4bf58dd8d48988d14e941735", "name": "American Restaurant", "pluralName": "American Restaurants", "shortName": "American", "icon": {"prefix": "https://ss3.4sqi.net/img/categories_v2/food/default_", "suffix": ".png"}, "primary": true}], "delivery": {"id": "750787", "url": "https://www.grubhub.com/restaurant/rock-bottom-restaurant--brewery-9627-e-county-line-rd-englewood/750787?affiliate=1131&utm_source=foursquare-affiliate-network&utm_medium=affiliate&utm_campaign=1131&utm_content=750787", "provider": {"name": "grubhub", "icon": {"prefix": "https://fastly.4sqi.net/img/general/cap/", "sizes": [40, 50], "name": "/delivery_provider_grubhub_20180129.png"}}}, "referralId": "v-1599069672", "hasPerk": false}, {"id": "5ac9295c67f62b7f2949e4fe", "name": "The Grateful Gnome Sandwich Shoppe & Brewery", "location": {"address": "4369 Stuart St", "crossStreet": "44th Avenue", "lat": 39.7765565797732, "lng": -105.04330122802375, "labeledLatLngs": [{"label": "display", "lat": 39.7765565797732, "lng": -105.04330122802375}], "distance": 6490, "postalCode": "80212", "cc": "US", "neighborhood": "Berkeley", "city": "Denver", "state": "CO", "country": "United States", "formattedAddress": ["4369 Stuart St (44th Avenue)", "Denver, CO 80212", "United States"]}, "categories": [{"id": "50327c8591d4c4b30a586d5d", "name": "Brewery", "pluralName": "Breweries", "shortName": "Brewery", "icon": {"prefix": "https://ss3.4sqi.net/img/categories_v2/food/brewery_", "suffix": ".png"}, "primary": true}], "delivery": {"id": "1787143", "url": "https://www.grubhub.com/restaurant/the-grateful-gnome-4369-stuart-street-denver/1787143?affiliate=1131&utm_source=foursquare-affiliate-network&utm_medium=affiliate&utm_campaign=1131&utm_content=1787143", "provider": {"name": "grubhub", "icon": {"prefix": "https://fastly.4sqi.net/img/general/cap/", "sizes": [40, 50], "name": "/delivery_provider_grubhub_20180129.png"}}}, "referralId": "v-1599069672", "hasPerk": false}, {"id": "57a51be0498e9bea9d84c0dd", "name": "Breckenridge Brewery", "location": {"address": "2920 Brewery Ln", "crossStreet": "Santa Fe", "lat": 39.59364345666856, "lng": -105.02507007843757, "labeledLatLngs": [{"label": "display", "lat": 39.59364345666856, "lng": -105.02507007843757}, {"label": "entrance", "lat": 39.593912, "lng": -105.024564}], "distance": 16523, "postalCode": "80120", "cc": "US", "city": "Littleton", "state": "CO", "country": "United States", "formattedAddress": ["2920 Brewery Ln (Santa Fe)", "Littleton, CO 80120", "United States"]}, "categories": [{"id": "50327c8591d4c4b30a586d5d", "name": "Brewery", "pluralName": "Breweries", "shortName": "Brewery", "icon": {"prefix": "https://ss3.4sqi.net/img/categories_v2/food/brewery_", "suffix": ".png"}, "primary": true}], "referralId": "v-1599069672", "hasPerk": false}, {"id": "4e55b996d4c0c50afdabde57", "name": "Freshwerks Brewery", "location": {"address": "1175 Albion St", "crossStreet": "12th Ave", "lat": 39.734142999999996, "lng": -104.939826, "labeledLatLngs": [{"label": "display", "lat": 39.734142999999996, "lng": -104.939826}, {"label": "entrance", "lat": 39.734066, "lng": -104.939652}], "distance": 3937, "postalCode": "80220", "cc": "US", "city": "Denver", "state": "CO", "country": "United States", "formattedAddress": ["1175 Albion St (12th Ave)", "Denver, CO 80220", "United States"]}, "categories": [{"id": "50327c8591d4c4b30a586d5d", "name": "Brewery", "pluralName": "Breweries", "shortName": "Brewery", "icon": {"prefix": "https://ss3.4sqi.net/img/categories_v2/food/brewery_", "suffix": ".png"}, "primary": true}], "referralId": "v-1599069672", "hasPerk": false}, {"id": "40e0b100f964a5202c041fe3", "name": "Wynkoop Brewing Co.", "location": {"address": "1634 18th St", "lat": 39.75357988403266, "lng": -104.99839557681358, "labeledLatLngs": [{"label": "display", "lat": 39.75357988403266, "lng": -104.99839557681358}], "distance": 1976, "postalCode": "80202", "cc": "US", "city": "Denver", "state": "CO", "country": "United States", "formattedAddress": ["1634 18th St", "Denver, CO 80202", "United States"]}, "categories": [{"id": "50327c8591d4c4b30a586d5d", "name": "Brewery", "pluralName": "Breweries", "shortName": "Brewery", "icon": {"prefix": "https://ss3.4sqi.net/img/categories_v2/food/brewery_", "suffix": ".png"}, "primary": true}], "referralId": "v-1599069672", "hasPerk": false}, {"id": "4cfc31d37f2db1f7ada631d4", "name": "Birch Street Brewery", "location": {"lat": 39.7361921346187, "lng": -104.93600781164528, "labeledLatLngs": [{"label": "display", "lat": 39.7361921346187, "lng": -104.93600781164528}], "distance": 4238, "cc": "US", "state": "Colorado", "country": "United States", "formattedAddress": ["Colorado", "United States"]}, "categories": [{"id": "50327c8591d4c4b30a586d5d", "name": "Brewery", "pluralName": "Breweries", "shortName": "Brewery", "icon": {"prefix": "https://ss3.4sqi.net/img/categories_v2/food/brewery_", "suffix": ".png"}, "primary": true}], "referralId": "v-1599069672", "hasPerk": false}, {"id": "51941eff498e3139a3170b51", "name": "next day brewery", "location": {"lat": 39.741294860839844, "lng": -104.9288101196289, "labeledLatLngs": [{"label": "display", "lat": 39.741294860839844, "lng": -104.9288101196289}], "distance": 4851, "cc": "US", "city": "Denver", "state": "CO", "country": "United States", "formattedAddress": ["Denver, CO", "United States"]}, "categories": [{"id": "50327c8591d4c4b30a586d5d", "name": "Brewery", "pluralName": "Breweries", "shortName": "Brewery", "icon": {"prefix": "https://ss3.4sqi.net/img/categories_v2/food/brewery_", "suffix": ".png"}, "primary": true}], "referralId": "v-1599069672", "hasPerk": false}, {"id": "53a5fbea498e15614657a59e", "name": "Chain Reaction Brewery", "location": {"address": "902 S Lipan St", "crossStreet": "Erb Pl", "lat": 39.699576951542156, "lng": -105.00133458143358, "labeledLatLngs": [{"label": "display", "lat": 39.699576951542156, "lng": -105.00133458143358}, {"label": "entrance", "lat": 39.699568, "lng": -105.001259}], "distance": 4585, "postalCode": "80223", "cc": "US", "city": "Denver", "state": "CO", "country": "United States", "formattedAddress": ["902 S Lipan St (Erb Pl)", "Denver, CO 80223", "United States"]}, "categories": [{"id": "50327c8591d4c4b30a586d5d", "name": "Brewery", "pluralName": "Breweries", "shortName": "Brewery", "icon": {"prefix": "https://ss3.4sqi.net/img/categories_v2/food/brewery_", "suffix": ".png"}, "primary": true}], "referralId": "v-1599069672", "hasPerk": false}, {"id": "4fb30bb7e4b0702bcf44a0ca", "name": "Hogshead Brewery", "location": {"address": "4460 W 29th Ave", "crossStreet": "W 29th Ave and Utica St", "lat": 39.758293793752934, "lng": -105.04510343218637, "labeledLatLngs": [{"label": "display", "lat": 39.758293793752934, "lng": -105.04510343218637}, {"label": "entrance", "lat": 39.758248, "lng": -105.045053}], "distance": 5547, "postalCode": "80212", "cc": "US", "city": "Denver", "state": "CO", "country": "United States", "formattedAddress": ["4460 W 29th Ave (W 29th Ave and Utica St)", "Denver, CO 80212", "United States"]}, "categories": [{"id": "50327c8591d4c4b30a586d5d", "name": "Brewery", "pluralName": "Breweries", "shortName": "Brewery", "icon": {"prefix": "https://ss3.4sqi.net/img/categories_v2/food/brewery_", "suffix": ".png"}, "primary": true}], "referralId": "v-1599069672", "hasPerk": false}, {"id": "4b9e9835f964a52062f236e3", "name": "Great Divide Brewing Co.", "location": {"address": "2201 Arapahoe St", "crossStreet": "at 22nd St", "lat": 39.753542376604024, "lng": -104.98842983751992, "labeledLatLngs": [{"label": "display", "lat": 39.753542376604024, "lng": -104.98842983751992}, {"label": "entrance", "lat": 39.75373, "lng": -104.98836}], "distance": 1650, "postalCode": "80205", "cc": "US", "city": "Denver", "state": "CO", "country": "United States", "formattedAddress": ["2201 Arapahoe St (at 22nd St)", "Denver, CO 80205", "United States"]}, "categories": [{"id": "50327c8591d4c4b30a586d5d", "name": "Brewery", "pluralName": "Breweries", "shortName": "Brewery", "icon": {"prefix": "https://ss3.4sqi.net/img/categories_v2/food/brewery_", "suffix": ".png"}, "primary": true}], "referralId": "v-1599069672", "hasPerk": false}, {"id": "553f9b5f498e1e1fe7f4adb7", "name": "Little Machine Beer", "location": {"address": "2924 W 20th Ave", "crossStreet": "btwn Federal Blvd & Mile High Stadium Cir", "lat": 39.747316, "lng": -105.024345, "labeledLatLngs": [{"label": "display", "lat": 39.747316, "lng": -105.024345}], "distance": 3462, "postalCode": "80211", "cc": "US", "city": "Denver", "state": "CO", "country": "United States", "formattedAddress": ["2924 W 20th Ave (btwn Federal Blvd & Mile High Stadium Cir)", "Denver, CO 80211", "United States"]}, "categories": [{"id": "50327c8591d4c4b30a586d5d", "name": "Brewery", "pluralName": "Breweries", "shortName": "Brewery", "icon": {"prefix": "https://ss3.4sqi.net/img/categories_v2/food/brewery_", "suffix": ".png"}, "primary": true}], "venuePage": {"id": "477745967"}, "referralId": "v-1599069672", "hasPerk": false}, {"id": "4b4e1598f964a520fde026e3", "name": "Gordon Biersch Brewery Restaurant", "location": {"address": "1 W Flatiron Crossing Dr, Ste 428", "lat": 39.9306754, "lng": -105.135331, "labeledLatLngs": [{"label": "display", "lat": 39.9306754, "lng": -105.135331}], "distance": 24899, "postalCode": "80021", "cc": "US", "city": "Broomfield", "state": "CO", "country": "United States", "formattedAddress": ["1 W Flatiron Crossing Dr, Ste 428", "Broomfield, CO 80021", "United States"]}, "categories": [{"id": "4bf58dd8d48988d14e941735", "name": "American Restaurant", "pluralName": "American Restaurants", "shortName": "American", "icon": {"prefix": "https://ss3.4sqi.net/img/categories_v2/food/default_", "suffix": ".png"}, "primary": true}], "referralId": "v-1599069672", "hasPerk": false}, {"id": "4f63fba1e4b036e3e792341d", "name": "Prost Brewing", "location": {"address": "2540 19th St", "lat": 39.7614385, "lng": -105.0066986, "labeledLatLngs": [{"label": "display", "lat": 39.7614385, "lng": -105.0066986}, {"label": "entrance", "lat": 39.761449, "lng": -105.006583}], "distance": 3101, "postalCode": "80211", "cc": "US", "city": "Denver", "state": "CO", "country": "United States", "formattedAddress": ["2540 19th St", "Denver, CO 80211", "United States"]}, "categories": [{"id": "50327c8591d4c4b30a586d5d", "name": "Brewery", "pluralName": "Breweries", "shortName": "Brewery", "icon": {"prefix": "https://ss3.4sqi.net/img/categories_v2/food/brewery_", "suffix": ".png"}, "primary": true}], "referralId": "v-1599069672", "hasPerk": false}, {"id": "57f583d1498e9f3cdf086deb", "name": "Briar Common", "location": {"address": "2298 N Clay St", "lat": 39.751061886566404, "lng": -105.0204161038444, "labeledLatLngs": [{"label": "display", "lat": 39.751061886566404, "lng": -105.0204161038444}], "distance": 3288, "postalCode": "80211", "cc": "US", "city": "Denver", "state": "CO", "country": "United States", "formattedAddress": ["2298 N Clay St", "Denver, CO 80211", "United States"]}, "categories": [{"id": "50327c8591d4c4b30a586d5d", "name": "Brewery", "pluralName": "Breweries", "shortName": "Brewery", "icon": {"prefix": "https://ss3.4sqi.net/img/categories_v2/food/brewery_", "suffix": ".png"}, "primary": true}], "referralId": "v-1599069672", "hasPerk": false}, {"id": "52465f63bce6d379bbfb58f5", "name": "Days Off Brewery", "location": {"address": "84 Spruce St", "lat": 39.721540000000005, "lng": -104.893045, "labeledLatLngs": [{"label": "display", "lat": 39.721540000000005, "lng": -104.893045}], "distance": 8139, "postalCode": "80230", "cc": "US", "city": "Denver", "state": "CO", "country": "United States", "formattedAddress": ["84 Spruce St", "Denver, CO 80230", "United States"]}, "categories": [{"id": "50327c8591d4c4b30a586d5d", "name": "Brewery", "pluralName": "Breweries", "shortName": "Brewery", "icon": {"prefix": "https://ss3.4sqi.net/img/categories_v2/food/brewery_", "suffix": ".png"}, "primary": true}], "referralId": "v-1599069672", "hasPerk": false}, {"id": "5d8b9f7b9918130008918d36", "name": "New Image Restaurant and Brewery", "location": {"address": "5622 Yukon Street", "lat": 39.7996425, "lng": -105.0823726, "labeledLatLngs": [{"label": "display", "lat": 39.7996425, "lng": -105.0823726}], "distance": 10703, "postalCode": "80002", "cc": "US", "city": "Arvada", "state": "CO", "country": "United States", "formattedAddress": ["5622 Yukon Street", "Arvada, CO 80002", "United States"]}, "categories": [{"id": "50327c8591d4c4b30a586d5d", "name": "Brewery", "pluralName": "Breweries", "shortName": "Brewery", "icon": {"prefix": "https://ss3.4sqi.net/img/categories_v2/food/brewery_", "suffix": ".png"}, "primary": true}], "referralId": "v-1599069672", "hasPerk": false}, {"id": "5737ca38498e06f097d50c70", "name": "Shriner Brewery", "location": {"lat": 39.657033, "lng": -104.983226, "labeledLatLngs": [{"label": "display", "lat": 39.657033, "lng": -104.983226}], "distance": 9115, "cc": "US", "city": "Englewood", "state": "CO", "country": "United States", "formattedAddress": ["Englewood, CO", "United States"]}, "categories": [{"id": "50327c8591d4c4b30a586d5d", "name": "Brewery", "pluralName": "Breweries", "shortName": "Brewery", "icon": {"prefix": "https://ss3.4sqi.net/img/categories_v2/food/brewery_", "suffix": ".png"}, "primary": true}], "referralId": "v-1599069672", "hasPerk": false}, {"id": "55b30f05498e8431bcfb9857", "name": "Launch Pad Brewery", "location": {"address": "884 S Buckley Rd", "crossStreet": "Kentucky Ave", "lat": 39.700740236380355, "lng": -104.7902589549381, "labeledLatLngs": [{"label": "display", "lat": 39.700740236380355, "lng": -104.7902589549381}, {"label": "entrance", "lat": 39.701063, "lng": -104.790127}], "distance": 17240, "postalCode": "80017", "cc": "US", "city": "Aurora", "state": "CO", "country": "United States", "formattedAddress": ["884 S Buckley Rd (Kentucky Ave)", "Aurora, CO 80017", "United States"]}, "categories": [{"id": "50327c8591d4c4b30a586d5d", "name": "Brewery", "pluralName": "Breweries", "shortName": "Brewery", "icon": {"prefix": "https://ss3.4sqi.net/img/categories_v2/food/brewery_", "suffix": ".png"}, "primary": true}], "venuePage": {"id": "222718482"}, "referralId": "v-1599069672", "hasPerk": false}, {"id": "56f5c4da498e706cc1987958", "name": "River North Brewery", "location": {"address": "6021 Washington St", "lat": 39.806755688818434, "lng": -104.97861201789216, "labeledLatLngs": [{"label": "display", "lat": 39.806755688818434, "lng": -104.97861201789216}], "distance": 7575, "postalCode": "80216", "cc": "US", "city": "Denver", "state": "CO", "country": "United States", "formattedAddress": ["6021 Washington St", "Denver, CO 80216", "United States"]}, "categories": [{"id": "50327c8591d4c4b30a586d5d", "name": "Brewery", "pluralName": "Breweries", "shortName": "Brewery", "icon": {"prefix": "https://ss3.4sqi.net/img/categories_v2/food/brewery_", "suffix": ".png"}, "primary": true}], "referralId": "v-1599069672", "hasPerk": false}, {"id": "5599a74a498e4caa78916bc4", "name": "Boggy Draw Brewery", "location": {"address": "3535 S Platte River Dr Ste L", "lat": 39.65317557289343, "lng": -105.01086997731551, "labeledLatLngs": [{"label": "display", "lat": 39.65317557289343, "lng": -105.01086997731551}], "distance": 9788, "postalCode": "80110", "cc": "US", "city": "Sheridan", "state": "CO", "country": "United States", "formattedAddress": ["3535 S Platte River Dr Ste L", "Sheridan, CO 80110", "United States"]}, "categories": [{"id": "50327c8591d4c4b30a586d5d", "name": "Brewery", "pluralName": "Breweries", "shortName": "Brewery", "icon": {"prefix": "https://ss3.4sqi.net/img/categories_v2/food/brewery_", "suffix": ".png"}, "primary": true}], "venuePage": {"id": "354616533"}, "referralId": "v-1599069672", "hasPerk": false}, {"id": "4bf48eaccad2c9282f219c99", "name": "Strange Craft Beer Company", "location": {"address": "1330 Zuni St Ste M", "crossStreet": "13th and Zuni", "lat": 39.73724255225483, "lng": -105.01489115393258, "labeledLatLngs": [{"label": "display", "lat": 39.73724255225483, "lng": -105.01489115393258}], "distance": 2531, "postalCode": "80204", "cc": "US", "city": "Denver", "state": "CO", "country": "United States", "formattedAddress": ["1330 Zuni St Ste M (13th and Zuni)", "Denver, CO 80204", "United States"]}, "categories": [{"id": "50327c8591d4c4b30a586d5d", "name": "Brewery", "pluralName": "Breweries", "shortName": "Brewery", "icon": {"prefix": "https://ss3.4sqi.net/img/categories_v2/food/brewery_", "suffix": ".png"}, "primary": true}], "venuePage": {"id": "123126659"}, "referralId": "v-1599069672", "hasPerk": false}, {"id": "5a319df7c0f163516bf18dd6", "name": "J. Moe's Brewery", "location": {"lat": 39.829357, "lng": -104.97713, "labeledLatLngs": [{"label": "display", "lat": 39.829357, "lng": -104.97713}], "distance": 10094, "postalCode": "80229", "cc": "US", "city": "Denver", "state": "CO", "country": "United States", "formattedAddress": ["Denver, CO 80229", "United States"]}, "categories": [{"id": "50327c8591d4c4b30a586d5d", "name": "Brewery", "pluralName": "Breweries", "shortName": "Brewery", "icon": {"prefix": "https://ss3.4sqi.net/img/categories_v2/food/brewery_", "suffix": ".png"}, "primary": true}], "referralId": "v-1599069672", "hasPerk": false}, {"id": "5eb1cae52ea82600080c555a", "name": "LUKI Brewery", "location": {"address": "14715 W 64th Ave", "lat": 39.8148168, "lng": -105.1639393, "labeledLatLngs": [{"label": "display", "lat": 39.8148168, "lng": -105.1639393}], "distance": 17456, "postalCode": "80004", "cc": "US", "city": "Arvada", "state": "CO", "country": "United States", "formattedAddress": ["14715 W 64th Ave", "Arvada, CO 80004", "United States"]}, "categories": [{"id": "50327c8591d4c4b30a586d5d", "name": "Brewery", "pluralName": "Breweries", "shortName": "Brewery", "icon": {"prefix": "https://ss3.4sqi.net/img/categories_v2/food/brewery_", "suffix": ".png"}, "primary": true}], "referralId": "v-1599069672", "hasPerk": false}, {"id": "519d5df6498e177ee288115e", "name": "Odyssey Beerwerks Brewery and Tap Room", "location": {"address": "5535 W 56th Ave Ste 107", "crossStreet": "Ralston Rd", "lat": 39.80068121683686, "lng": -105.0587663445008, "labeledLatLngs": [{"label": "display", "lat": 39.80068121683686, "lng": -105.0587663445008}], "distance": 9311, "postalCode": "80002", "cc": "US", "city": "Arvada", "state": "CO", "country": "United States", "formattedAddress": ["5535 W 56th Ave Ste 107 (Ralston Rd)", "Arvada, CO 80002", "United States"]}, "categories": [{"id": "50327c8591d4c4b30a586d5d", "name": "Brewery", "pluralName": "Breweries", "shortName": "Brewery", "icon": {"prefix": "https://ss3.4sqi.net/img/categories_v2/food/brewery_", "suffix": ".png"}, "primary": true}], "venuePage": {"id": "76214614"}, "referralId": "v-1599069672", "hasPerk": false}, {"id": "57e44e92498efbcaeeabc5a0", "name": "someplace else brewery", "location": {"address": "6425 W 52nd Ave", "lat": 39.79160783641827, "lng": -105.06766265658878, "labeledLatLngs": [{"label": "display", "lat": 39.79160783641827, "lng": -105.06766265658878}], "distance": 9163, "postalCode": "80002", "cc": "US", "city": "Arvada", "state": "CO", "country": "United States", "formattedAddress": ["6425 W 52nd Ave", "Arvada, CO 80002", "United States"]}, "categories": [{"id": "50327c8591d4c4b30a586d5d", "name": "Brewery", "pluralName": "Breweries", "shortName": "Brewery", "icon": {"prefix": "https://ss3.4sqi.net/img/categories_v2/food/brewery_", "suffix": ".png"}, "primary": true}], "referralId": "v-1599069672", "hasPerk": false}, {"id": "51ca46f28bbd484e162209fe", "name": "Ursula Brewery", "location": {"address": "2101 N Ursula St Unit 10", "crossStreet": "E Montview Blvd", "lat": 39.74819904599276, "lng": -104.83788075782358, "labeledLatLngs": [{"label": "display", "lat": 39.74819904599276, "lng": -104.83788075782358}], "distance": 12669, "postalCode": "80045", "cc": "US", "city": "Aurora", "state": "CO", "country": "United States", "formattedAddress": ["2101 N Ursula St Unit 10 (E Montview Blvd)", "Aurora, CO 80045", "United States"]}, "categories": [{"id": "50327c8591d4c4b30a586d5d", "name": "Brewery", "pluralName": "Breweries", "shortName": "Brewery", "icon": {"prefix": "https://ss3.4sqi.net/img/categories_v2/food/brewery_", "suffix": ".png"}, "primary": true}], "venuePage": {"id": "415545294"}, "referralId": "v-1599069672", "hasPerk": false}, {"id": "4eb5eaaa6da1df9ffab7c7b8", "name": "Chipped Pot Brewery", "location": {"lat": 39.71032, "lng": -105.14257, "labeledLatLngs": [{"label": "display", "lat": 39.71032, "lng": -105.14257}], "distance": 13827, "postalCode": "80228", "cc": "US", "city": "Denver", "state": "CO", "country": "United States", "formattedAddress": ["Denver, CO 80228", "United States"]}, "categories": [{"id": "50327c8591d4c4b30a586d5d", "name": "Brewery", "pluralName": "Breweries", "shortName": "Brewery", "icon": {"prefix": "https://ss3.4sqi.net/img/categories_v2/food/brewery_", "suffix": ".png"}, "primary": true}], "referralId": "v-1599069672", "hasPerk": false}, {"id": "5c9582d2ff0306002c0d261f", "name": "Empourium Brewing Company", "location": {"lat": 39.774196999999994, "lng": -105.04364199999999, "labeledLatLngs": [{"label": "display", "lat": 39.774196999999994, "lng": -105.04364199999999}, {"label": "entrance", "lat": 39.774074, "lng": -105.043529}], "distance": 6346, "postalCode": "80212", "cc": "US", "city": "Denver", "state": "CO", "country": "United States", "formattedAddress": ["Denver, CO 80212", "United States"]}, "categories": [{"id": "50327c8591d4c4b30a586d5d", "name": "Brewery", "pluralName": "Breweries", "shortName": "Brewery", "icon": {"prefix": "https://ss3.4sqi.net/img/categories_v2/food/brewery_", "suffix": ".png"}, "primary": true}], "referralId": "v-1599069672", "hasPerk": false}, {"id": "4ad8fc78f964a520c81621e3", "name": "Golden City Brewery", "location": {"address": "920 12th St", "crossStreet": "at Cheyenne St.", "lat": 39.75463390544511, "lng": -105.22376467907254, "labeledLatLngs": [{"label": "display", "lat": 39.75463390544511, "lng": -105.22376467907254}, {"label": "entrance", "lat": 39.754494, "lng": -105.223332}], "distance": 20476, "postalCode": "80401", "cc": "US", "city": "Golden", "state": "CO", "country": "United States", "formattedAddress": ["920 12th St (at Cheyenne St.)", "Golden, CO 80401", "United States"]}, "categories": [{"id": "50327c8591d4c4b30a586d5d", "name": "Brewery", "pluralName": "Breweries", "shortName": "Brewery", "icon": {"prefix": "https://ss3.4sqi.net/img/categories_v2/food/brewery_", "suffix": ".png"}, "primary": true}], "delivery": {"id": "2155448", "url": "https://www.grubhub.com/restaurant/golden-city-brewery-920-12th-street-golden/2155448?affiliate=1131&utm_source=foursquare-affiliate-network&utm_medium=affiliate&utm_campaign=1131&utm_content=2155448", "provider": {"name": "grubhub", "icon": {"prefix": "https://fastly.4sqi.net/img/general/cap/", "sizes": [40, 50], "name": "/delivery_provider_grubhub_20180129.png"}}}, "venuePage": {"id": "39495210"}, "referralId": "v-1599069672", "hasPerk": false}, {"id": "5c1d585b121384002ce94d2b", "name": "Mangy Dog Home Brewery", "location": {"lat": 39.87382, "lng": -105.00166, "labeledLatLngs": [{"label": "display", "lat": 39.87382, "lng": -105.00166}], "distance": 15083, "postalCode": "80260", "cc": "US", "city": "Northglenn", "state": "CO", "country": "United States", "formattedAddress": ["Northglenn, CO 80260", "United States"]}, "categories": [{"id": "50327c8591d4c4b30a586d5d", "name": "Brewery", "pluralName": "Breweries", "shortName": "Brewery", "icon": {"prefix": "https://ss3.4sqi.net/img/categories_v2/food/brewery_", "suffix": ".png"}, "primary": true}], "referralId": "v-1599069672", "hasPerk": false}, {"id": "4d5d7c98524fa35d3f185535", "name": "Trifecta Beer Brewery", "location": {"crossStreet": "Oak and 68", "lat": 39.82076573229413, "lng": -105.11680126190186, "labeledLatLngs": [{"label": "display", "lat": 39.82076573229413, "lng": -105.11680126190186}], "distance": 14471, "postalCode": "80004", "cc": "US", "city": "Arvada", "state": "CO", "country": "United States", "formattedAddress": ["Oak and 68", "Arvada, CO 80004", "United States"]}, "categories": [{"id": "50327c8591d4c4b30a586d5d", "name": "Brewery", "pluralName": "Breweries", "shortName": "Brewery", "icon": {"prefix": "https://ss3.4sqi.net/img/categories_v2/food/brewery_", "suffix": ".png"}, "primary": true}], "referralId": "v-1599069672", "hasPerk": false}, {"id": "40e0b100f964a520ed031fe3", "name": "Rock Bottom Restaurant & Brewery", "location": {"address": "1001 16th St, #A-100", "crossStreet": "btwn Curtis St and Arapahoe St", "lat": 39.7474532, "lng": -104.9947898, "labeledLatLngs": [{"label": "display", "lat": 39.7474532, "lng": -104.9947898}], "distance": 1246, "postalCode": "80265", "cc": "US", "city": "Denver", "state": "CO", "country": "United States", "formattedAddress": ["1001 16th St, #A-100 (btwn Curtis St and Arapahoe St)", "Denver, CO 80265", "United States"]}, "categories": [{"id": "4bf58dd8d48988d14e941735", "name": "American Restaurant", "pluralName": "American Restaurants", "shortName": "American", "icon": {"prefix": "https://ss3.4sqi.net/img/categories_v2/food/default_", "suffix": ".png"}, "primary": true}], "delivery": {"id": "749652", "url": "https://www.grubhub.com/restaurant/rock-bottom-restaurant--brewery-1001-16th-st-ste-a100-denver/749652?affiliate=1131&utm_source=foursquare-affiliate-network&utm_medium=affiliate&utm_campaign=1131&utm_content=749652", "provider": {"name": "grubhub", "icon": {"prefix": "https://fastly.4sqi.net/img/general/cap/", "sizes": [40, 50], "name": "/delivery_provider_grubhub_20180129.png"}}}, "referralId": "v-1599069684", "hasPerk": false}, {"id": "522132a711d261ae095938b9", "name": "Jagged Mountain Brewery", "location": {"address": "1139 20th St", "crossStreet": "Lawrence Street", "lat": 39.75214633776, "lng": -104.99153747682703, "labeledLatLngs": [{"label": "display", "lat": 39.75214633776, "lng": -104.99153747682703}], "distance": 1565, "postalCode": "80202", "cc": "US", "city": "Denver", "state": "CO", "country": "United States", "formattedAddress": ["1139 20th St (Lawrence Street)", "Denver, CO 80202", "United States"]}, "categories": [{"id": "50327c8591d4c4b30a586d5d", "name": "Brewery", "pluralName": "Breweries", "shortName": "Brewery", "icon": {"prefix": "https://ss3.4sqi.net/img/categories_v2/food/brewery_", "suffix": ".png"}, "primary": true}], "referralId": "v-1599069684", "hasPerk": false}, {"id": "5d6d4197a27e1a0007831f82", "name": "Counter Culture Brewery + Grille", "location": {"address": "205 E 7th Ave", "crossStreet": "Sherman", "lat": 39.727476, "lng": -104.984587, "labeledLatLngs": [{"label": "display", "lat": 39.727476, "lng": -104.984587}, {"label": "entrance", "lat": 39.7274, "lng": -104.984662}], "distance": 1273, "postalCode": "80203", "cc": "US", "neighborhood": "Capitol Hill", "city": "Denver", "state": "CO", "country": "United States", "formattedAddress": ["205 E 7th Ave (Sherman)", "Denver, CO 80203", "United States"]}, "categories": [{"id": "50327c8591d4c4b30a586d5d", "name": "Brewery", "pluralName": "Breweries", "shortName": "Brewery", "icon": {"prefix": "https://ss3.4sqi.net/img/categories_v2/food/brewery_", "suffix": ".png"}, "primary": true}], "referralId": "v-1599069684", "hasPerk": false}, {"id": "4ae39034f964a520b79621e3", "name": "ChopHouse & Brewery Denver", "location": {"address": "1735 19th St, Ste 100", "crossStreet": "at Wynkoop", "lat": 39.7549595, "lng": -104.9973732, "labeledLatLngs": [{"label": "display", "lat": 39.7549595, "lng": -104.9973732}], "distance": 2060, "postalCode": "80202", "cc": "US", "city": "Denver", "state": "CO", "country": "United States", "formattedAddress": ["1735 19th St, Ste 100 (at Wynkoop)", "Denver, CO 80202", "United States"]}, "categories": [{"id": "4bf58dd8d48988d14e941735", "name": "American Restaurant", "pluralName": "American Restaurants", "shortName": "American", "icon": {"prefix": "https://ss3.4sqi.net/img/categories_v2/food/default_", "suffix": ".png"}, "primary": true}], "delivery": {"id": "758247", "url": "https://www.grubhub.com/restaurant/chophouse-and-brewery-1735-19th-st-ste-100-denver/758247?affiliate=1131&utm_source=foursquare-affiliate-network&utm_medium=affiliate&utm_campaign=1131&utm_content=758247", "provider": {"name": "grubhub", "icon": {"prefix": "https://fastly.4sqi.net/img/general/cap/", "sizes": [40, 50], "name": "/delivery_provider_grubhub_20180129.png"}}}, "referralId": "v-1599069684", "hasPerk": false}, {"id": "40e0b100f964a520f4031fe3", "name": "Blue Moon Brewery at The Sandlot", "location": {"address": "2161 Blake St", "lat": 39.75608916394047, "lng": -104.99238377344396, "labeledLatLngs": [{"label": "display", "lat": 39.75608916394047, "lng": -104.99238377344396}], "distance": 2004, "postalCode": "80205", "cc": "US", "city": "Denver", "state": "CO", "country": "United States", "formattedAddress": ["2161 Blake St", "Denver, CO 80205", "United States"]}, "categories": [{"id": "50327c8591d4c4b30a586d5d", "name": "Brewery", "pluralName": "Breweries", "shortName": "Brewery", "icon": {"prefix": "https://ss3.4sqi.net/img/categories_v2/food/brewery_", "suffix": ".png"}, "primary": true}], "referralId": "v-1599069684", "hasPerk": false}, {"id": "5d94c08216cfd90008bcdf73", "name": "Crazy Mountain Brewery Taproom & Beer Garden", "location": {"address": "471 Kalamath Street", "lat": 39.7237459, "lng": -105.0004981, "labeledLatLngs": [{"label": "display", "lat": 39.7237459, "lng": -105.0004981}], "distance": 2125, "postalCode": "80204", "cc": "US", "city": "Denver", "state": "CO", "country": "United States", "formattedAddress": ["471 Kalamath Street", "Denver, CO 80204", "United States"]}, "categories": [{"id": "50327c8591d4c4b30a586d5d", "name": "Brewery", "pluralName": "Breweries", "shortName": "Brewery", "icon": {"prefix": "https://ss3.4sqi.net/img/categories_v2/food/brewery_", "suffix": ".png"}, "primary": true}], "referralId": "v-1599069684", "hasPerk": false}, {"id": "5238b84911d2b81d3be80b22", "name": "Lowdown Brewery+Kitchen", "location": {"address": "800 N Lincoln St", "crossStreet": "8th Street", "lat": 39.72927815753679, "lng": -104.9859686012042, "labeledLatLngs": [{"label": "display", "lat": 39.72927815753679, "lng": -104.9859686012042}], "distance": 1072, "postalCode": "80203", "cc": "US", "city": "Denver", "state": "CO", "country": "United States", "formattedAddress": ["800 N Lincoln St (8th Street)", "Denver, CO 80203", "United States"]}, "categories": [{"id": "50327c8591d4c4b30a586d5d", "name": "Brewery", "pluralName": "Breweries", "shortName": "Brewery", "icon": {"prefix": "https://ss3.4sqi.net/img/categories_v2/food/brewery_", "suffix": ".png"}, "primary": true}], "venuePage": {"id": "82187894"}, "referralId": "v-1599069684", "hasPerk": false}, {"id": "40e0b100f964a52024031fe3", "name": "Bull & Bush Pub & Brewery", "location": {"address": "4700 E Cherry Creek South Dr", "crossStreet": "at Dexter St", "lat": 39.70309851200205, "lng": -104.93250052704902, "labeledLatLngs": [{"label": "display", "lat": 39.70309851200205, "lng": -104.93250052704902}], "distance": 6033, "postalCode": "80246", "cc": "US", "city": "Denver", "state": "CO", "country": "United States", "formattedAddress": ["4700 E Cherry Creek South Dr (at Dexter St)", "Denver, CO 80246", "United States"]}, "categories": [{"id": "4bf58dd8d48988d11b941735", "name": "Pub", "pluralName": "Pubs", "shortName": "Pub", "icon": {"prefix": "https://ss3.4sqi.net/img/categories_v2/nightlife/pub_", "suffix": ".png"}, "primary": true}], "referralId": "v-1599069684", "hasPerk": false}, {"id": "50358aa890e7435760637d16", "name": "Brewery Rickoli Ltd.", "location": {"address": "4335 Wadsworth Blvd", "crossStreet": "at W 44th Ave", "lat": 39.775771633338294, "lng": -105.08191615903179, "labeledLatLngs": [{"label": "display", "lat": 39.775771633338294, "lng": -105.08191615903179}, {"label": "entrance", "lat": 39.775466, "lng": -105.082513}], "distance": 9223, "postalCode": "80033", "cc": "US", "city": "Wheat Ridge", "state": "CO", "country": "United States", "formattedAddress": ["4335 Wadsworth Blvd (at W 44th Ave)", "Wheat Ridge, CO 80033", "United States"]}, "categories": [{"id": "50327c8591d4c4b30a586d5d", "name": "Brewery", "pluralName": "Breweries", "shortName": "Brewery", "icon": {"prefix": "https://ss3.4sqi.net/img/categories_v2/food/brewery_", "suffix": ".png"}, "primary": true}], "venuePage": {"id": "37143038"}, "referralId": "v-1599069684", "hasPerk": false}, {"id": "5a21abc48173cb3fac6c2607", "name": "Liberati Restaurant & Brewery", "location": {"address": "2403 Champa St", "crossStreet": "24th St", "lat": 39.754384, "lng": -104.984292, "labeledLatLngs": [{"label": "display", "lat": 39.754384, "lng": -104.984292}], "distance": 1726, "postalCode": "80205", "cc": "US", "neighborhood": "Curtis Park", "city": "Denver", "state": "CO", "country": "United States", "formattedAddress": ["2403 Champa St (24th St)", "Denver, CO 80205", "United States"]}, "categories": [{"id": "50327c8591d4c4b30a586d5d", "name": "Brewery", "pluralName": "Breweries", "shortName": "Brewery", "icon": {"prefix": "https://ss3.4sqi.net/img/categories_v2/food/brewery_", "suffix": ".png"}, "primary": true}], "referralId": "v-1599069684", "hasPerk": false}, {"id": "50f857cbe4b0385dddce4f5c", "name": "Black Sky Brewery", "location": {"address": "490 Santa Fe Dr", "crossStreet": "5th Ave", "lat": 39.72393206840796, "lng": -104.99836567013307, "labeledLatLngs": [{"label": "display", "lat": 39.72393206840796, "lng": -104.99836567013307}, {"label": "entrance", "lat": 39.723943, "lng": -104.998471}], "distance": 2002, "postalCode": "80204", "cc": "US", "city": "Denver", "state": "CO", "country": "United States", "formattedAddress": ["490 Santa Fe Dr (5th Ave)", "Denver, CO 80204", "United States"]}, "categories": [{"id": "50327c8591d4c4b30a586d5d", "name": "Brewery", "pluralName": "Breweries", "shortName": "Brewery", "icon": {"prefix": "https://ss3.4sqi.net/img/categories_v2/food/brewery_", "suffix": ".png"}, "primary": true}], "referralId": "v-1599069684", "hasPerk": false}, {"id": "4e8373dd2c5be7c3aac486b3", "name": "Wit\u2019s End Brewery", "location": {"address": "2505 W 2nd Ave Unit 13", "lat": 39.72079191624785, "lng": -105.01754918318852, "labeledLatLngs": [{"label": "display", "lat": 39.72079191624785, "lng": -105.01754918318852}], "distance": 3411, "postalCode": "80219", "cc": "US", "city": "Denver", "state": "CO", "country": "United States", "formattedAddress": ["2505 W 2nd Ave Unit 13", "Denver, CO 80219", "United States"]}, "categories": [{"id": "50327c8591d4c4b30a586d5d", "name": "Brewery", "pluralName": "Breweries", "shortName": "Brewery", "icon": {"prefix": "https://ss3.4sqi.net/img/categories_v2/food/brewery_", "suffix": ".png"}, "primary": true}], "referralId": "v-1599069684", "hasPerk": false}, {"id": "4aef6266f964a520ffd721e3", "name": "Denver Chop House & Brewery", "location": {"address": "at Concourse A", "crossStreet": "Denver International Airport", "lat": 39.85368785490711, "lng": -104.67414767115251, "labeledLatLngs": [{"label": "display", "lat": 39.85368785490711, "lng": -104.67414767115251}], "distance": 29528, "postalCode": "80202", "cc": "US", "city": "Denver", "state": "CO", "country": "United States", "formattedAddress": ["at Concourse A (Denver International Airport)", "Denver, CO 80202", "United States"]}, "categories": [{"id": "4bf58dd8d48988d1cc941735", "name": "Steakhouse", "pluralName": "Steakhouses", "shortName": "Steakhouse", "icon": {"prefix": "https://ss3.4sqi.net/img/categories_v2/food/steakhouse_", "suffix": ".png"}, "primary": true}], "referralId": "v-1599069684", "hasPerk": false}, {"id": "55271451498e2f11fe19bb60", "name": "Spangalang Brewery", "location": {"address": "2736 Welton St", "lat": 39.75509507759308, "lng": -104.97707937267216, "labeledLatLngs": [{"label": "display", "lat": 39.75509507759308, "lng": -104.97707937267216}], "distance": 1938, "postalCode": "80205", "cc": "US", "city": "Denver", "state": "CO", "country": "United States", "formattedAddress": ["2736 Welton St", "Denver, CO 80205", "United States"]}, "categories": [{"id": "50327c8591d4c4b30a586d5d", "name": "Brewery", "pluralName": "Breweries", "shortName": "Brewery", "icon": {"prefix": "https://ss3.4sqi.net/img/categories_v2/food/brewery_", "suffix": ".png"}, "primary": true}], "referralId": "v-1599069684", "hasPerk": false}, {"id": "5d2a2c83afbe290023906aeb", "name": "River North Brewery", "location": {"address": "3400 Blake St", "crossStreet": "34th St", "lat": 39.767466999999996, "lng": -104.97688400000001, "labeledLatLngs": [{"label": "display", "lat": 39.767466999999996, "lng": -104.97688400000001}], "distance": 3262, "postalCode": "80205", "cc": "US", "city": "Denver", "state": "CO", "country": "United States", "formattedAddress": ["3400 Blake St (34th St)", "Denver, CO 80205", "United States"]}, "categories": [{"id": "50327c8591d4c4b30a586d5d", "name": "Brewery", "pluralName": "Breweries", "shortName": "Brewery", "icon": {"prefix": "https://ss3.4sqi.net/img/categories_v2/food/brewery_", "suffix": ".png"}, "primary": true}], "referralId": "v-1599069684", "hasPerk": false}, {"id": "4ec031f52c5b252c19d438cf", "name": "Lone Tree Brewery Co.", "location": {"address": "8222 Park Meadows Dr", "lat": 39.56244685452791, "lng": -104.89288999999407, "labeledLatLngs": [{"label": "display", "lat": 39.56244685452791, "lng": -104.89288999999407}], "distance": 21182, "postalCode": "80124", "cc": "US", "city": "Lone Tree", "state": "CO", "country": "United States", "formattedAddress": ["8222 Park Meadows Dr", "Lone Tree, CO 80124", "United States"]}, "categories": [{"id": "50327c8591d4c4b30a586d5d", "name": "Brewery", "pluralName": "Breweries", "shortName": "Brewery", "icon": {"prefix": "https://ss3.4sqi.net/img/categories_v2/food/brewery_", "suffix": ".png"}, "primary": true}], "venuePage": {"id": "123549078"}, "referralId": "v-1599069684", "hasPerk": false}, {"id": "4f008beaa17cde548a3a370f", "name": "Gaijin 24886 Brewery", "location": {"address": "2443 Vine St", "crossStreet": "23rd & Vine", "lat": 39.75164434698163, "lng": -104.96231138706207, "labeledLatLngs": [{"label": "display", "lat": 39.75164434698163, "lng": -104.96231138706207}], "distance": 2432, "postalCode": "80205", "cc": "US", "city": "Denver", "state": "CO", "country": "United States", "formattedAddress": ["2443 Vine St (23rd & Vine)", "Denver, CO 80205", "United States"]}, "categories": [{"id": "50327c8591d4c4b30a586d5d", "name": "Brewery", "pluralName": "Breweries", "shortName": "Brewery", "icon": {"prefix": "https://ss3.4sqi.net/img/categories_v2/food/brewery_", "suffix": ".png"}, "primary": true}], "referralId": "v-1599069684", "hasPerk": false}, {"id": "56bfdf1ccd103f2da6d2f708", "name": "Seedstock Brewery", "location": {"address": "3610 W Colfax Ave", "lat": 39.74013041136972, "lng": -105.03482357684804, "labeledLatLngs": [{"label": "display", "lat": 39.74013041136972, "lng": -105.03482357684804}], "distance": 4232, "postalCode": "80204", "cc": "US", "city": "Denver", "state": "CO", "country": "United States", "formattedAddress": ["3610 W Colfax Ave", "Denver, CO 80204", "United States"]}, "categories": [{"id": "50327c8591d4c4b30a586d5d", "name": "Brewery", "pluralName": "Breweries", "shortName": "Brewery", "icon": {"prefix": "https://ss3.4sqi.net/img/categories_v2/food/brewery_", "suffix": ".png"}, "primary": true}], "referralId": "v-1599069684", "hasPerk": false}, {"id": "49dfe1d2f964a52024611fe3", "name": "Vine Street Pub & Brewery", "location": {"address": "1700 Vine St", "crossStreet": "at 17th Ave", "lat": 39.74333520746895, "lng": -104.96200914080556, "labeledLatLngs": [{"label": "display", "lat": 39.74333520746895, "lng": -104.96200914080556}], "distance": 2062, "postalCode": "80206", "cc": "US", "city": "Denver", "state": "CO", "country": "United States", "formattedAddress": ["1700 Vine St (at 17th Ave)", "Denver, CO 80206", "United States"]}, "categories": [{"id": "50327c8591d4c4b30a586d5d", "name": "Brewery", "pluralName": "Breweries", "shortName": "Brewery", "icon": {"prefix": "https://ss3.4sqi.net/img/categories_v2/food/brewery_", "suffix": ".png"}, "primary": true}], "referralId": "v-1599069684", "hasPerk": false}, {"id": "4ac6b882f964a52002b620e3", "name": "Rock Bottom Restaurant & Brewery", "location": {"address": "9627 E County Line Rd", "lat": 39.56779045974549, "lng": -104.87397015094757, "labeledLatLngs": [{"label": "display", "lat": 39.56779045974549, "lng": -104.87397015094757}], "distance": 21307, "postalCode": "80112", "cc": "US", "city": "Centennial", "state": "CO", "country": "United States", "formattedAddress": ["9627 E County Line Rd", "Centennial, CO 80112", "United States"]}, "categories": [{"id": "4bf58dd8d48988d14e941735", "name": "American Restaurant", "pluralName": "American Restaurants", "shortName": "American", "icon": {"prefix": "https://ss3.4sqi.net/img/categories_v2/food/default_", "suffix": ".png"}, "primary": true}], "delivery": {"id": "750787", "url": "https://www.grubhub.com/restaurant/rock-bottom-restaurant--brewery-9627-e-county-line-rd-englewood/750787?affiliate=1131&utm_source=foursquare-affiliate-network&utm_medium=affiliate&utm_campaign=1131&utm_content=750787", "provider": {"name": "grubhub", "icon": {"prefix": "https://fastly.4sqi.net/img/general/cap/", "sizes": [40, 50], "name": "/delivery_provider_grubhub_20180129.png"}}}, "referralId": "v-1599069684", "hasPerk": false}, {"id": "5ac9295c67f62b7f2949e4fe", "name": "The Grateful Gnome Sandwich Shoppe & Brewery", "location": {"address": "4369 Stuart St", "crossStreet": "44th Avenue", "lat": 39.7765565797732, "lng": -105.04330122802375, "labeledLatLngs": [{"label": "display", "lat": 39.7765565797732, "lng": -105.04330122802375}], "distance": 6490, "postalCode": "80212", "cc": "US", "neighborhood": "Berkeley", "city": "Denver", "state": "CO", "country": "United States", "formattedAddress": ["4369 Stuart St (44th Avenue)", "Denver, CO 80212", "United States"]}, "categories": [{"id": "50327c8591d4c4b30a586d5d", "name": "Brewery", "pluralName": "Breweries", "shortName": "Brewery", "icon": {"prefix": "https://ss3.4sqi.net/img/categories_v2/food/brewery_", "suffix": ".png"}, "primary": true}], "delivery": {"id": "1787143", "url": "https://www.grubhub.com/restaurant/the-grateful-gnome-4369-stuart-street-denver/1787143?affiliate=1131&utm_source=foursquare-affiliate-network&utm_medium=affiliate&utm_campaign=1131&utm_content=1787143", "provider": {"name": "grubhub", "icon": {"prefix": "https://fastly.4sqi.net/img/general/cap/", "sizes": [40, 50], "name": "/delivery_provider_grubhub_20180129.png"}}}, "referralId": "v-1599069684", "hasPerk": false}, {"id": "57a51be0498e9bea9d84c0dd", "name": "Breckenridge Brewery", "location": {"address": "2920 Brewery Ln", "crossStreet": "Santa Fe", "lat": 39.59364345666856, "lng": -105.02507007843757, "labeledLatLngs": [{"label": "display", "lat": 39.59364345666856, "lng": -105.02507007843757}, {"label": "entrance", "lat": 39.593912, "lng": -105.024564}], "distance": 16523, "postalCode": "80120", "cc": "US", "city": "Littleton", "state": "CO", "country": "United States", "formattedAddress": ["2920 Brewery Ln (Santa Fe)", "Littleton, CO 80120", "United States"]}, "categories": [{"id": "50327c8591d4c4b30a586d5d", "name": "Brewery", "pluralName": "Breweries", "shortName": "Brewery", "icon": {"prefix": "https://ss3.4sqi.net/img/categories_v2/food/brewery_", "suffix": ".png"}, "primary": true}], "referralId": "v-1599069684", "hasPerk": false}, {"id": "4e55b996d4c0c50afdabde57", "name": "Freshwerks Brewery", "location": {"address": "1175 Albion St", "crossStreet": "12th Ave", "lat": 39.734142999999996, "lng": -104.939826, "labeledLatLngs": [{"label": "display", "lat": 39.734142999999996, "lng": -104.939826}, {"label": "entrance", "lat": 39.734066, "lng": -104.939652}], "distance": 3937, "postalCode": "80220", "cc": "US", "city": "Denver", "state": "CO", "country": "United States", "formattedAddress": ["1175 Albion St (12th Ave)", "Denver, CO 80220", "United States"]}, "categories": [{"id": "50327c8591d4c4b30a586d5d", "name": "Brewery", "pluralName": "Breweries", "shortName": "Brewery", "icon": {"prefix": "https://ss3.4sqi.net/img/categories_v2/food/brewery_", "suffix": ".png"}, "primary": true}], "referralId": "v-1599069684", "hasPerk": false}, {"id": "40e0b100f964a5202c041fe3", "name": "Wynkoop Brewing Co.", "location": {"address": "1634 18th St", "lat": 39.75357988403266, "lng": -104.99839557681358, "labeledLatLngs": [{"label": "display", "lat": 39.75357988403266, "lng": -104.99839557681358}], "distance": 1976, "postalCode": "80202", "cc": "US", "city": "Denver", "state": "CO", "country": "United States", "formattedAddress": ["1634 18th St", "Denver, CO 80202", "United States"]}, "categories": [{"id": "50327c8591d4c4b30a586d5d", "name": "Brewery", "pluralName": "Breweries", "shortName": "Brewery", "icon": {"prefix": "https://ss3.4sqi.net/img/categories_v2/food/brewery_", "suffix": ".png"}, "primary": true}], "referralId": "v-1599069684", "hasPerk": false}, {"id": "4cfc31d37f2db1f7ada631d4", "name": "Birch Street Brewery", "location": {"lat": 39.7361921346187, "lng": -104.93600781164528, "labeledLatLngs": [{"label": "display", "lat": 39.7361921346187, "lng": -104.93600781164528}], "distance": 4238, "cc": "US", "state": "Colorado", "country": "United States", "formattedAddress": ["Colorado", "United States"]}, "categories": [{"id": "50327c8591d4c4b30a586d5d", "name": "Brewery", "pluralName": "Breweries", "shortName": "Brewery", "icon": {"prefix": "https://ss3.4sqi.net/img/categories_v2/food/brewery_", "suffix": ".png"}, "primary": true}], "referralId": "v-1599069684", "hasPerk": false}, {"id": "51941eff498e3139a3170b51", "name": "next day brewery", "location": {"lat": 39.741294860839844, "lng": -104.9288101196289, "labeledLatLngs": [{"label": "display", "lat": 39.741294860839844, "lng": -104.9288101196289}], "distance": 4851, "cc": "US", "city": "Denver", "state": "CO", "country": "United States", "formattedAddress": ["Denver, CO", "United States"]}, "categories": [{"id": "50327c8591d4c4b30a586d5d", "name": "Brewery", "pluralName": "Breweries", "shortName": "Brewery", "icon": {"prefix": "https://ss3.4sqi.net/img/categories_v2/food/brewery_", "suffix": ".png"}, "primary": true}], "referralId": "v-1599069684", "hasPerk": false}, {"id": "53a5fbea498e15614657a59e", "name": "Chain Reaction Brewery", "location": {"address": "902 S Lipan St", "crossStreet": "Erb Pl", "lat": 39.699576951542156, "lng": -105.00133458143358, "labeledLatLngs": [{"label": "display", "lat": 39.699576951542156, "lng": -105.00133458143358}, {"label": "entrance", "lat": 39.699568, "lng": -105.001259}], "distance": 4585, "postalCode": "80223", "cc": "US", "city": "Denver", "state": "CO", "country": "United States", "formattedAddress": ["902 S Lipan St (Erb Pl)", "Denver, CO 80223", "United States"]}, "categories": [{"id": "50327c8591d4c4b30a586d5d", "name": "Brewery", "pluralName": "Breweries", "shortName": "Brewery", "icon": {"prefix": "https://ss3.4sqi.net/img/categories_v2/food/brewery_", "suffix": ".png"}, "primary": true}], "referralId": "v-1599069684", "hasPerk": false}, {"id": "4fb30bb7e4b0702bcf44a0ca", "name": "Hogshead Brewery", "location": {"address": "4460 W 29th Ave", "crossStreet": "W 29th Ave and Utica St", "lat": 39.758293793752934, "lng": -105.04510343218637, "labeledLatLngs": [{"label": "display", "lat": 39.758293793752934, "lng": -105.04510343218637}, {"label": "entrance", "lat": 39.758248, "lng": -105.045053}], "distance": 5547, "postalCode": "80212", "cc": "US", "city": "Denver", "state": "CO", "country": "United States", "formattedAddress": ["4460 W 29th Ave (W 29th Ave and Utica St)", "Denver, CO 80212", "United States"]}, "categories": [{"id": "50327c8591d4c4b30a586d5d", "name": "Brewery", "pluralName": "Breweries", "shortName": "Brewery", "icon": {"prefix": "https://ss3.4sqi.net/img/categories_v2/food/brewery_", "suffix": ".png"}, "primary": true}], "referralId": "v-1599069684", "hasPerk": false}, {"id": "4b9e9835f964a52062f236e3", "name": "Great Divide Brewing Co.", "location": {"address": "2201 Arapahoe St", "crossStreet": "at 22nd St", "lat": 39.753542376604024, "lng": -104.98842983751992, "labeledLatLngs": [{"label": "display", "lat": 39.753542376604024, "lng": -104.98842983751992}, {"label": "entrance", "lat": 39.75373, "lng": -104.98836}], "distance": 1650, "postalCode": "80205", "cc": "US", "city": "Denver", "state": "CO", "country": "United States", "formattedAddress": ["2201 Arapahoe St (at 22nd St)", "Denver, CO 80205", "United States"]}, "categories": [{"id": "50327c8591d4c4b30a586d5d", "name": "Brewery", "pluralName": "Breweries", "shortName": "Brewery", "icon": {"prefix": "https://ss3.4sqi.net/img/categories_v2/food/brewery_", "suffix": ".png"}, "primary": true}], "referralId": "v-1599069684", "hasPerk": false}, {"id": "553f9b5f498e1e1fe7f4adb7", "name": "Little Machine Beer", "location": {"address": "2924 W 20th Ave", "crossStreet": "btwn Federal Blvd & Mile High Stadium Cir", "lat": 39.747316, "lng": -105.024345, "labeledLatLngs": [{"label": "display", "lat": 39.747316, "lng": -105.024345}], "distance": 3462, "postalCode": "80211", "cc": "US", "city": "Denver", "state": "CO", "country": "United States", "formattedAddress": ["2924 W 20th Ave (btwn Federal Blvd & Mile High Stadium Cir)", "Denver, CO 80211", "United States"]}, "categories": [{"id": "50327c8591d4c4b30a586d5d", "name": "Brewery", "pluralName": "Breweries", "shortName": "Brewery", "icon": {"prefix": "https://ss3.4sqi.net/img/categories_v2/food/brewery_", "suffix": ".png"}, "primary": true}], "venuePage": {"id": "477745967"}, "referralId": "v-1599069684", "hasPerk": false}, {"id": "4b4e1598f964a520fde026e3", "name": "Gordon Biersch Brewery Restaurant", "location": {"address": "1 W Flatiron Crossing Dr, Ste 428", "lat": 39.9306754, "lng": -105.135331, "labeledLatLngs": [{"label": "display", "lat": 39.9306754, "lng": -105.135331}], "distance": 24899, "postalCode": "80021", "cc": "US", "city": "Broomfield", "state": "CO", "country": "United States", "formattedAddress": ["1 W Flatiron Crossing Dr, Ste 428", "Broomfield, CO 80021", "United States"]}, "categories": [{"id": "4bf58dd8d48988d14e941735", "name": "American Restaurant", "pluralName": "American Restaurants", "shortName": "American", "icon": {"prefix": "https://ss3.4sqi.net/img/categories_v2/food/default_", "suffix": ".png"}, "primary": true}], "referralId": "v-1599069684", "hasPerk": false}, {"id": "4f63fba1e4b036e3e792341d", "name": "Prost Brewing", "location": {"address": "2540 19th St", "lat": 39.7614385, "lng": -105.0066986, "labeledLatLngs": [{"label": "display", "lat": 39.7614385, "lng": -105.0066986}, {"label": "entrance", "lat": 39.761449, "lng": -105.006583}], "distance": 3101, "postalCode": "80211", "cc": "US", "city": "Denver", "state": "CO", "country": "United States", "formattedAddress": ["2540 19th St", "Denver, CO 80211", "United States"]}, "categories": [{"id": "50327c8591d4c4b30a586d5d", "name": "Brewery", "pluralName": "Breweries", "shortName": "Brewery", "icon": {"prefix": "https://ss3.4sqi.net/img/categories_v2/food/brewery_", "suffix": ".png"}, "primary": true}], "referralId": "v-1599069684", "hasPerk": false}, {"id": "57f583d1498e9f3cdf086deb", "name": "Briar Common", "location": {"address": "2298 N Clay St", "lat": 39.751061886566404, "lng": -105.0204161038444, "labeledLatLngs": [{"label": "display", "lat": 39.751061886566404, "lng": -105.0204161038444}], "distance": 3288, "postalCode": "80211", "cc": "US", "city": "Denver", "state": "CO", "country": "United States", "formattedAddress": ["2298 N Clay St", "Denver, CO 80211", "United States"]}, "categories": [{"id": "50327c8591d4c4b30a586d5d", "name": "Brewery", "pluralName": "Breweries", "shortName": "Brewery", "icon": {"prefix": "https://ss3.4sqi.net/img/categories_v2/food/brewery_", "suffix": ".png"}, "primary": true}], "referralId": "v-1599069684", "hasPerk": false}, {"id": "52465f63bce6d379bbfb58f5", "name": "Days Off Brewery", "location": {"address": "84 Spruce St", "lat": 39.721540000000005, "lng": -104.893045, "labeledLatLngs": [{"label": "display", "lat": 39.721540000000005, "lng": -104.893045}], "distance": 8139, "postalCode": "80230", "cc": "US", "city": "Denver", "state": "CO", "country": "United States", "formattedAddress": ["84 Spruce St", "Denver, CO 80230", "United States"]}, "categories": [{"id": "50327c8591d4c4b30a586d5d", "name": "Brewery", "pluralName": "Breweries", "shortName": "Brewery", "icon": {"prefix": "https://ss3.4sqi.net/img/categories_v2/food/brewery_", "suffix": ".png"}, "primary": true}], "referralId": "v-1599069684", "hasPerk": false}, {"id": "5d8b9f7b9918130008918d36", "name": "New Image Restaurant and Brewery", "location": {"address": "5622 Yukon Street", "lat": 39.7996425, "lng": -105.0823726, "labeledLatLngs": [{"label": "display", "lat": 39.7996425, "lng": -105.0823726}], "distance": 10703, "postalCode": "80002", "cc": "US", "city": "Arvada", "state": "CO", "country": "United States", "formattedAddress": ["5622 Yukon Street", "Arvada, CO 80002", "United States"]}, "categories": [{"id": "50327c8591d4c4b30a586d5d", "name": "Brewery", "pluralName": "Breweries", "shortName": "Brewery", "icon": {"prefix": "https://ss3.4sqi.net/img/categories_v2/food/brewery_", "suffix": ".png"}, "primary": true}], "referralId": "v-1599069684", "hasPerk": false}, {"id": "5737ca38498e06f097d50c70", "name": "Shriner Brewery", "location": {"lat": 39.657033, "lng": -104.983226, "labeledLatLngs": [{"label": "display", "lat": 39.657033, "lng": -104.983226}], "distance": 9115, "cc": "US", "city": "Englewood", "state": "CO", "country": "United States", "formattedAddress": ["Englewood, CO", "United States"]}, "categories": [{"id": "50327c8591d4c4b30a586d5d", "name": "Brewery", "pluralName": "Breweries", "shortName": "Brewery", "icon": {"prefix": "https://ss3.4sqi.net/img/categories_v2/food/brewery_", "suffix": ".png"}, "primary": true}], "referralId": "v-1599069684", "hasPerk": false}, {"id": "55b30f05498e8431bcfb9857", "name": "Launch Pad Brewery", "location": {"address": "884 S Buckley Rd", "crossStreet": "Kentucky Ave", "lat": 39.700740236380355, "lng": -104.7902589549381, "labeledLatLngs": [{"label": "display", "lat": 39.700740236380355, "lng": -104.7902589549381}, {"label": "entrance", "lat": 39.701063, "lng": -104.790127}], "distance": 17240, "postalCode": "80017", "cc": "US", "city": "Aurora", "state": "CO", "country": "United States", "formattedAddress": ["884 S Buckley Rd (Kentucky Ave)", "Aurora, CO 80017", "United States"]}, "categories": [{"id": "50327c8591d4c4b30a586d5d", "name": "Brewery", "pluralName": "Breweries", "shortName": "Brewery", "icon": {"prefix": "https://ss3.4sqi.net/img/categories_v2/food/brewery_", "suffix": ".png"}, "primary": true}], "venuePage": {"id": "222718482"}, "referralId": "v-1599069684", "hasPerk": false}, {"id": "56f5c4da498e706cc1987958", "name": "River North Brewery", "location": {"address": "6021 Washington St", "lat": 39.806755688818434, "lng": -104.97861201789216, "labeledLatLngs": [{"label": "display", "lat": 39.806755688818434, "lng": -104.97861201789216}], "distance": 7575, "postalCode": "80216", "cc": "US", "city": "Denver", "state": "CO", "country": "United States", "formattedAddress": ["6021 Washington St", "Denver, CO 80216", "United States"]}, "categories": [{"id": "50327c8591d4c4b30a586d5d", "name": "Brewery", "pluralName": "Breweries", "shortName": "Brewery", "icon": {"prefix": "https://ss3.4sqi.net/img/categories_v2/food/brewery_", "suffix": ".png"}, "primary": true}], "referralId": "v-1599069684", "hasPerk": false}, {"id": "5599a74a498e4caa78916bc4", "name": "Boggy Draw Brewery", "location": {"address": "3535 S Platte River Dr Ste L", "lat": 39.65317557289343, "lng": -105.01086997731551, "labeledLatLngs": [{"label": "display", "lat": 39.65317557289343, "lng": -105.01086997731551}], "distance": 9788, "postalCode": "80110", "cc": "US", "city": "Sheridan", "state": "CO", "country": "United States", "formattedAddress": ["3535 S Platte River Dr Ste L", "Sheridan, CO 80110", "United States"]}, "categories": [{"id": "50327c8591d4c4b30a586d5d", "name": "Brewery", "pluralName": "Breweries", "shortName": "Brewery", "icon": {"prefix": "https://ss3.4sqi.net/img/categories_v2/food/brewery_", "suffix": ".png"}, "primary": true}], "venuePage": {"id": "354616533"}, "referralId": "v-1599069684", "hasPerk": false}, {"id": "4bf48eaccad2c9282f219c99", "name": "Strange Craft Beer Company", "location": {"address": "1330 Zuni St Ste M", "crossStreet": "13th and Zuni", "lat": 39.73724255225483, "lng": -105.01489115393258, "labeledLatLngs": [{"label": "display", "lat": 39.73724255225483, "lng": -105.01489115393258}], "distance": 2531, "postalCode": "80204", "cc": "US", "city": "Denver", "state": "CO", "country": "United States", "formattedAddress": ["1330 Zuni St Ste M (13th and Zuni)", "Denver, CO 80204", "United States"]}, "categories": [{"id": "50327c8591d4c4b30a586d5d", "name": "Brewery", "pluralName": "Breweries", "shortName": "Brewery", "icon": {"prefix": "https://ss3.4sqi.net/img/categories_v2/food/brewery_", "suffix": ".png"}, "primary": true}], "venuePage": {"id": "123126659"}, "referralId": "v-1599069684", "hasPerk": false}, {"id": "5a319df7c0f163516bf18dd6", "name": "J. Moe's Brewery", "location": {"lat": 39.829357, "lng": -104.97713, "labeledLatLngs": [{"label": "display", "lat": 39.829357, "lng": -104.97713}], "distance": 10094, "postalCode": "80229", "cc": "US", "city": "Denver", "state": "CO", "country": "United States", "formattedAddress": ["Denver, CO 80229", "United States"]}, "categories": [{"id": "50327c8591d4c4b30a586d5d", "name": "Brewery", "pluralName": "Breweries", "shortName": "Brewery", "icon": {"prefix": "https://ss3.4sqi.net/img/categories_v2/food/brewery_", "suffix": ".png"}, "primary": true}], "referralId": "v-1599069684", "hasPerk": false}, {"id": "5eb1cae52ea82600080c555a", "name": "LUKI Brewery", "location": {"address": "14715 W 64th Ave", "lat": 39.8148168, "lng": -105.1639393, "labeledLatLngs": [{"label": "display", "lat": 39.8148168, "lng": -105.1639393}], "distance": 17456, "postalCode": "80004", "cc": "US", "city": "Arvada", "state": "CO", "country": "United States", "formattedAddress": ["14715 W 64th Ave", "Arvada, CO 80004", "United States"]}, "categories": [{"id": "50327c8591d4c4b30a586d5d", "name": "Brewery", "pluralName": "Breweries", "shortName": "Brewery", "icon": {"prefix": "https://ss3.4sqi.net/img/categories_v2/food/brewery_", "suffix": ".png"}, "primary": true}], "referralId": "v-1599069684", "hasPerk": false}, {"id": "519d5df6498e177ee288115e", "name": "Odyssey Beerwerks Brewery and Tap Room", "location": {"address": "5535 W 56th Ave Ste 107", "crossStreet": "Ralston Rd", "lat": 39.80068121683686, "lng": -105.0587663445008, "labeledLatLngs": [{"label": "display", "lat": 39.80068121683686, "lng": -105.0587663445008}], "distance": 9311, "postalCode": "80002", "cc": "US", "city": "Arvada", "state": "CO", "country": "United States", "formattedAddress": ["5535 W 56th Ave Ste 107 (Ralston Rd)", "Arvada, CO 80002", "United States"]}, "categories": [{"id": "50327c8591d4c4b30a586d5d", "name": "Brewery", "pluralName": "Breweries", "shortName": "Brewery", "icon": {"prefix": "https://ss3.4sqi.net/img/categories_v2/food/brewery_", "suffix": ".png"}, "primary": true}], "venuePage": {"id": "76214614"}, "referralId": "v-1599069684", "hasPerk": false}, {"id": "57e44e92498efbcaeeabc5a0", "name": "someplace else brewery", "location": {"address": "6425 W 52nd Ave", "lat": 39.79160783641827, "lng": -105.06766265658878, "labeledLatLngs": [{"label": "display", "lat": 39.79160783641827, "lng": -105.06766265658878}], "distance": 9163, "postalCode": "80002", "cc": "US", "city": "Arvada", "state": "CO", "country": "United States", "formattedAddress": ["6425 W 52nd Ave", "Arvada, CO 80002", "United States"]}, "categories": [{"id": "50327c8591d4c4b30a586d5d", "name": "Brewery", "pluralName": "Breweries", "shortName": "Brewery", "icon": {"prefix": "https://ss3.4sqi.net/img/categories_v2/food/brewery_", "suffix": ".png"}, "primary": true}], "referralId": "v-1599069684", "hasPerk": false}, {"id": "51ca46f28bbd484e162209fe", "name": "Ursula Brewery", "location": {"address": "2101 N Ursula St Unit 10", "crossStreet": "E Montview Blvd", "lat": 39.74819904599276, "lng": -104.83788075782358, "labeledLatLngs": [{"label": "display", "lat": 39.74819904599276, "lng": -104.83788075782358}], "distance": 12669, "postalCode": "80045", "cc": "US", "city": "Aurora", "state": "CO", "country": "United States", "formattedAddress": ["2101 N Ursula St Unit 10 (E Montview Blvd)", "Aurora, CO 80045", "United States"]}, "categories": [{"id": "50327c8591d4c4b30a586d5d", "name": "Brewery", "pluralName": "Breweries", "shortName": "Brewery", "icon": {"prefix": "https://ss3.4sqi.net/img/categories_v2/food/brewery_", "suffix": ".png"}, "primary": true}], "venuePage": {"id": "415545294"}, "referralId": "v-1599069684", "hasPerk": false}, {"id": "4eb5eaaa6da1df9ffab7c7b8", "name": "Chipped Pot Brewery", "location": {"lat": 39.71032, "lng": -105.14257, "labeledLatLngs": [{"label": "display", "lat": 39.71032, "lng": -105.14257}], "distance": 13827, "postalCode": "80228", "cc": "US", "city": "Denver", "state": "CO", "country": "United States", "formattedAddress": ["Denver, CO 80228", "United States"]}, "categories": [{"id": "50327c8591d4c4b30a586d5d", "name": "Brewery", "pluralName": "Breweries", "shortName": "Brewery", "icon": {"prefix": "https://ss3.4sqi.net/img/categories_v2/food/brewery_", "suffix": ".png"}, "primary": true}], "referralId": "v-1599069684", "hasPerk": false}, {"id": "5c9582d2ff0306002c0d261f", "name": "Empourium Brewing Company", "location": {"lat": 39.774196999999994, "lng": -105.04364199999999, "labeledLatLngs": [{"label": "display", "lat": 39.774196999999994, "lng": -105.04364199999999}, {"label": "entrance", "lat": 39.774074, "lng": -105.043529}], "distance": 6346, "postalCode": "80212", "cc": "US", "city": "Denver", "state": "CO", "country": "United States", "formattedAddress": ["Denver, CO 80212", "United States"]}, "categories": [{"id": "50327c8591d4c4b30a586d5d", "name": "Brewery", "pluralName": "Breweries", "shortName": "Brewery", "icon": {"prefix": "https://ss3.4sqi.net/img/categories_v2/food/brewery_", "suffix": ".png"}, "primary": true}], "referralId": "v-1599069684", "hasPerk": false}, {"id": "4ad8fc78f964a520c81621e3", "name": "Golden City Brewery", "location": {"address": "920 12th St", "crossStreet": "at Cheyenne St.", "lat": 39.75463390544511, "lng": -105.22376467907254, "labeledLatLngs": [{"label": "display", "lat": 39.75463390544511, "lng": -105.22376467907254}, {"label": "entrance", "lat": 39.754494, "lng": -105.223332}], "distance": 20476, "postalCode": "80401", "cc": "US", "city": "Golden", "state": "CO", "country": "United States", "formattedAddress": ["920 12th St (at Cheyenne St.)", "Golden, CO 80401", "United States"]}, "categories": [{"id": "50327c8591d4c4b30a586d5d", "name": "Brewery", "pluralName": "Breweries", "shortName": "Brewery", "icon": {"prefix": "https://ss3.4sqi.net/img/categories_v2/food/brewery_", "suffix": ".png"}, "primary": true}], "delivery": {"id": "2155448", "url": "https://www.grubhub.com/restaurant/golden-city-brewery-920-12th-street-golden/2155448?affiliate=1131&utm_source=foursquare-affiliate-network&utm_medium=affiliate&utm_campaign=1131&utm_content=2155448", "provider": {"name": "grubhub", "icon": {"prefix": "https://fastly.4sqi.net/img/general/cap/", "sizes": [40, 50], "name": "/delivery_provider_grubhub_20180129.png"}}}, "venuePage": {"id": "39495210"}, "referralId": "v-1599069684", "hasPerk": false}, {"id": "5c1d585b121384002ce94d2b", "name": "Mangy Dog Home Brewery", "location": {"lat": 39.87382, "lng": -105.00166, "labeledLatLngs": [{"label": "display", "lat": 39.87382, "lng": -105.00166}], "distance": 15083, "postalCode": "80260", "cc": "US", "city": "Northglenn", "state": "CO", "country": "United States", "formattedAddress": ["Northglenn, CO 80260", "United States"]}, "categories": [{"id": "50327c8591d4c4b30a586d5d", "name": "Brewery", "pluralName": "Breweries", "shortName": "Brewery", "icon": {"prefix": "https://ss3.4sqi.net/img/categories_v2/food/brewery_", "suffix": ".png"}, "primary": true}], "referralId": "v-1599069684", "hasPerk": false}, {"id": "4d5d7c98524fa35d3f185535", "name": "Trifecta Beer Brewery", "location": {"crossStreet": "Oak and 68", "lat": 39.82076573229413, "lng": -105.11680126190186, "labeledLatLngs": [{"label": "display", "lat": 39.82076573229413, "lng": -105.11680126190186}], "distance": 14471, "postalCode": "80004", "cc": "US", "city": "Arvada", "state": "CO", "country": "United States", "formattedAddress": ["Oak and 68", "Arvada, CO 80004", "United States"]}, "categories": [{"id": "50327c8591d4c4b30a586d5d", "name": "Brewery", "pluralName": "Breweries", "shortName": "Brewery", "icon": {"prefix": "https://ss3.4sqi.net/img/categories_v2/food/brewery_", "suffix": ".png"}, "primary": true}], "referralId": "v-1599069684", "hasPerk": false}, {"id": "40e0b100f964a520ed031fe3", "name": "Rock Bottom Restaurant & Brewery", "location": {"address": "1001 16th St, #A-100", "crossStreet": "btwn Curtis St and Arapahoe St", "lat": 39.7474532, "lng": -104.9947898, "labeledLatLngs": [{"label": "display", "lat": 39.7474532, "lng": -104.9947898}], "distance": 1246, "postalCode": "80265", "cc": "US", "city": "Denver", "state": "CO", "country": "United States", "formattedAddress": ["1001 16th St, #A-100 (btwn Curtis St and Arapahoe St)", "Denver, CO 80265", "United States"]}, "categories": [{"id": "4bf58dd8d48988d14e941735", "name": "American Restaurant", "pluralName": "American Restaurants", "shortName": "American", "icon": {"prefix": "https://ss3.4sqi.net/img/categories_v2/food/default_", "suffix": ".png"}, "primary": true}], "delivery": {"id": "749652", "url": "https://www.grubhub.com/restaurant/rock-bottom-restaurant--brewery-1001-16th-st-ste-a100-denver/749652?affiliate=1131&utm_source=foursquare-affiliate-network&utm_medium=affiliate&utm_campaign=1131&utm_content=749652", "provider": {"name": "grubhub", "icon": {"prefix": "https://fastly.4sqi.net/img/general/cap/", "sizes": [40, 50], "name": "/delivery_provider_grubhub_20180129.png"}}}, "referralId": "v-1599069685", "hasPerk": false}, {"id": "522132a711d261ae095938b9", "name": "Jagged Mountain Brewery", "location": {"address": "1139 20th St", "crossStreet": "Lawrence Street", "lat": 39.75214633776, "lng": -104.99153747682703, "labeledLatLngs": [{"label": "display", "lat": 39.75214633776, "lng": -104.99153747682703}], "distance": 1565, "postalCode": "80202", "cc": "US", "city": "Denver", "state": "CO", "country": "United States", "formattedAddress": ["1139 20th St (Lawrence Street)", "Denver, CO 80202", "United States"]}, "categories": [{"id": "50327c8591d4c4b30a586d5d", "name": "Brewery", "pluralName": "Breweries", "shortName": "Brewery", "icon": {"prefix": "https://ss3.4sqi.net/img/categories_v2/food/brewery_", "suffix": ".png"}, "primary": true}], "referralId": "v-1599069685", "hasPerk": false}, {"id": "5d6d4197a27e1a0007831f82", "name": "Counter Culture Brewery + Grille", "location": {"address": "205 E 7th Ave", "crossStreet": "Sherman", "lat": 39.727476, "lng": -104.984587, "labeledLatLngs": [{"label": "display", "lat": 39.727476, "lng": -104.984587}, {"label": "entrance", "lat": 39.7274, "lng": -104.984662}], "distance": 1273, "postalCode": "80203", "cc": "US", "neighborhood": "Capitol Hill", "city": "Denver", "state": "CO", "country": "United States", "formattedAddress": ["205 E 7th Ave (Sherman)", "Denver, CO 80203", "United States"]}, "categories": [{"id": "50327c8591d4c4b30a586d5d", "name": "Brewery", "pluralName": "Breweries", "shortName": "Brewery", "icon": {"prefix": "https://ss3.4sqi.net/img/categories_v2/food/brewery_", "suffix": ".png"}, "primary": true}], "referralId": "v-1599069685", "hasPerk": false}, {"id": "4ae39034f964a520b79621e3", "name": "ChopHouse & Brewery Denver", "location": {"address": "1735 19th St, Ste 100", "crossStreet": "at Wynkoop", "lat": 39.7549595, "lng": -104.9973732, "labeledLatLngs": [{"label": "display", "lat": 39.7549595, "lng": -104.9973732}], "distance": 2060, "postalCode": "80202", "cc": "US", "city": "Denver", "state": "CO", "country": "United States", "formattedAddress": ["1735 19th St, Ste 100 (at Wynkoop)", "Denver, CO 80202", "United States"]}, "categories": [{"id": "4bf58dd8d48988d14e941735", "name": "American Restaurant", "pluralName": "American Restaurants", "shortName": "American", "icon": {"prefix": "https://ss3.4sqi.net/img/categories_v2/food/default_", "suffix": ".png"}, "primary": true}], "delivery": {"id": "758247", "url": "https://www.grubhub.com/restaurant/chophouse-and-brewery-1735-19th-st-ste-100-denver/758247?affiliate=1131&utm_source=foursquare-affiliate-network&utm_medium=affiliate&utm_campaign=1131&utm_content=758247", "provider": {"name": "grubhub", "icon": {"prefix": "https://fastly.4sqi.net/img/general/cap/", "sizes": [40, 50], "name": "/delivery_provider_grubhub_20180129.png"}}}, "referralId": "v-1599069685", "hasPerk": false}, {"id": "40e0b100f964a520f4031fe3", "name": "Blue Moon Brewery at The Sandlot", "location": {"address": "2161 Blake St", "lat": 39.75608916394047, "lng": -104.99238377344396, "labeledLatLngs": [{"label": "display", "lat": 39.75608916394047, "lng": -104.99238377344396}], "distance": 2004, "postalCode": "80205", "cc": "US", "city": "Denver", "state": "CO", "country": "United States", "formattedAddress": ["2161 Blake St", "Denver, CO 80205", "United States"]}, "categories": [{"id": "50327c8591d4c4b30a586d5d", "name": "Brewery", "pluralName": "Breweries", "shortName": "Brewery", "icon": {"prefix": "https://ss3.4sqi.net/img/categories_v2/food/brewery_", "suffix": ".png"}, "primary": true}], "referralId": "v-1599069685", "hasPerk": false}, {"id": "5d94c08216cfd90008bcdf73", "name": "Crazy Mountain Brewery Taproom & Beer Garden", "location": {"address": "471 Kalamath Street", "lat": 39.7237459, "lng": -105.0004981, "labeledLatLngs": [{"label": "display", "lat": 39.7237459, "lng": -105.0004981}], "distance": 2125, "postalCode": "80204", "cc": "US", "city": "Denver", "state": "CO", "country": "United States", "formattedAddress": ["471 Kalamath Street", "Denver, CO 80204", "United States"]}, "categories": [{"id": "50327c8591d4c4b30a586d5d", "name": "Brewery", "pluralName": "Breweries", "shortName": "Brewery", "icon": {"prefix": "https://ss3.4sqi.net/img/categories_v2/food/brewery_", "suffix": ".png"}, "primary": true}], "referralId": "v-1599069685", "hasPerk": false}, {"id": "5238b84911d2b81d3be80b22", "name": "Lowdown Brewery+Kitchen", "location": {"address": "800 N Lincoln St", "crossStreet": "8th Street", "lat": 39.72927815753679, "lng": -104.9859686012042, "labeledLatLngs": [{"label": "display", "lat": 39.72927815753679, "lng": -104.9859686012042}], "distance": 1072, "postalCode": "80203", "cc": "US", "city": "Denver", "state": "CO", "country": "United States", "formattedAddress": ["800 N Lincoln St (8th Street)", "Denver, CO 80203", "United States"]}, "categories": [{"id": "50327c8591d4c4b30a586d5d", "name": "Brewery", "pluralName": "Breweries", "shortName": "Brewery", "icon": {"prefix": "https://ss3.4sqi.net/img/categories_v2/food/brewery_", "suffix": ".png"}, "primary": true}], "venuePage": {"id": "82187894"}, "referralId": "v-1599069685", "hasPerk": false}, {"id": "40e0b100f964a52024031fe3", "name": "Bull & Bush Pub & Brewery", "location": {"address": "4700 E Cherry Creek South Dr", "crossStreet": "at Dexter St", "lat": 39.70309851200205, "lng": -104.93250052704902, "labeledLatLngs": [{"label": "display", "lat": 39.70309851200205, "lng": -104.93250052704902}], "distance": 6033, "postalCode": "80246", "cc": "US", "city": "Denver", "state": "CO", "country": "United States", "formattedAddress": ["4700 E Cherry Creek South Dr (at Dexter St)", "Denver, CO 80246", "United States"]}, "categories": [{"id": "4bf58dd8d48988d11b941735", "name": "Pub", "pluralName": "Pubs", "shortName": "Pub", "icon": {"prefix": "https://ss3.4sqi.net/img/categories_v2/nightlife/pub_", "suffix": ".png"}, "primary": true}], "referralId": "v-1599069685", "hasPerk": false}, {"id": "50358aa890e7435760637d16", "name": "Brewery Rickoli Ltd.", "location": {"address": "4335 Wadsworth Blvd", "crossStreet": "at W 44th Ave", "lat": 39.775771633338294, "lng": -105.08191615903179, "labeledLatLngs": [{"label": "display", "lat": 39.775771633338294, "lng": -105.08191615903179}, {"label": "entrance", "lat": 39.775466, "lng": -105.082513}], "distance": 9223, "postalCode": "80033", "cc": "US", "city": "Wheat Ridge", "state": "CO", "country": "United States", "formattedAddress": ["4335 Wadsworth Blvd (at W 44th Ave)", "Wheat Ridge, CO 80033", "United States"]}, "categories": [{"id": "50327c8591d4c4b30a586d5d", "name": "Brewery", "pluralName": "Breweries", "shortName": "Brewery", "icon": {"prefix": "https://ss3.4sqi.net/img/categories_v2/food/brewery_", "suffix": ".png"}, "primary": true}], "venuePage": {"id": "37143038"}, "referralId": "v-1599069685", "hasPerk": false}, {"id": "5a21abc48173cb3fac6c2607", "name": "Liberati Restaurant & Brewery", "location": {"address": "2403 Champa St", "crossStreet": "24th St", "lat": 39.754384, "lng": -104.984292, "labeledLatLngs": [{"label": "display", "lat": 39.754384, "lng": -104.984292}], "distance": 1726, "postalCode": "80205", "cc": "US", "neighborhood": "Curtis Park", "city": "Denver", "state": "CO", "country": "United States", "formattedAddress": ["2403 Champa St (24th St)", "Denver, CO 80205", "United States"]}, "categories": [{"id": "50327c8591d4c4b30a586d5d", "name": "Brewery", "pluralName": "Breweries", "shortName": "Brewery", "icon": {"prefix": "https://ss3.4sqi.net/img/categories_v2/food/brewery_", "suffix": ".png"}, "primary": true}], "referralId": "v-1599069685", "hasPerk": false}, {"id": "50f857cbe4b0385dddce4f5c", "name": "Black Sky Brewery", "location": {"address": "490 Santa Fe Dr", "crossStreet": "5th Ave", "lat": 39.72393206840796, "lng": -104.99836567013307, "labeledLatLngs": [{"label": "display", "lat": 39.72393206840796, "lng": -104.99836567013307}, {"label": "entrance", "lat": 39.723943, "lng": -104.998471}], "distance": 2002, "postalCode": "80204", "cc": "US", "city": "Denver", "state": "CO", "country": "United States", "formattedAddress": ["490 Santa Fe Dr (5th Ave)", "Denver, CO 80204", "United States"]}, "categories": [{"id": "50327c8591d4c4b30a586d5d", "name": "Brewery", "pluralName": "Breweries", "shortName": "Brewery", "icon": {"prefix": "https://ss3.4sqi.net/img/categories_v2/food/brewery_", "suffix": ".png"}, "primary": true}], "referralId": "v-1599069685", "hasPerk": false}, {"id": "4e8373dd2c5be7c3aac486b3", "name": "Wit\u2019s End Brewery", "location": {"address": "2505 W 2nd Ave Unit 13", "lat": 39.72079191624785, "lng": -105.01754918318852, "labeledLatLngs": [{"label": "display", "lat": 39.72079191624785, "lng": -105.01754918318852}], "distance": 3411, "postalCode": "80219", "cc": "US", "city": "Denver", "state": "CO", "country": "United States", "formattedAddress": ["2505 W 2nd Ave Unit 13", "Denver, CO 80219", "United States"]}, "categories": [{"id": "50327c8591d4c4b30a586d5d", "name": "Brewery", "pluralName": "Breweries", "shortName": "Brewery", "icon": {"prefix": "https://ss3.4sqi.net/img/categories_v2/food/brewery_", "suffix": ".png"}, "primary": true}], "referralId": "v-1599069685", "hasPerk": false}, {"id": "4aef6266f964a520ffd721e3", "name": "Denver Chop House & Brewery", "location": {"address": "at Concourse A", "crossStreet": "Denver International Airport", "lat": 39.85368785490711, "lng": -104.67414767115251, "labeledLatLngs": [{"label": "display", "lat": 39.85368785490711, "lng": -104.67414767115251}], "distance": 29528, "postalCode": "80202", "cc": "US", "city": "Denver", "state": "CO", "country": "United States", "formattedAddress": ["at Concourse A (Denver International Airport)", "Denver, CO 80202", "United States"]}, "categories": [{"id": "4bf58dd8d48988d1cc941735", "name": "Steakhouse", "pluralName": "Steakhouses", "shortName": "Steakhouse", "icon": {"prefix": "https://ss3.4sqi.net/img/categories_v2/food/steakhouse_", "suffix": ".png"}, "primary": true}], "referralId": "v-1599069685", "hasPerk": false}, {"id": "55271451498e2f11fe19bb60", "name": "Spangalang Brewery", "location": {"address": "2736 Welton St", "lat": 39.75509507759308, "lng": -104.97707937267216, "labeledLatLngs": [{"label": "display", "lat": 39.75509507759308, "lng": -104.97707937267216}], "distance": 1938, "postalCode": "80205", "cc": "US", "city": "Denver", "state": "CO", "country": "United States", "formattedAddress": ["2736 Welton St", "Denver, CO 80205", "United States"]}, "categories": [{"id": "50327c8591d4c4b30a586d5d", "name": "Brewery", "pluralName": "Breweries", "shortName": "Brewery", "icon": {"prefix": "https://ss3.4sqi.net/img/categories_v2/food/brewery_", "suffix": ".png"}, "primary": true}], "referralId": "v-1599069685", "hasPerk": false}, {"id": "5d2a2c83afbe290023906aeb", "name": "River North Brewery", "location": {"address": "3400 Blake St", "crossStreet": "34th St", "lat": 39.767466999999996, "lng": -104.97688400000001, "labeledLatLngs": [{"label": "display", "lat": 39.767466999999996, "lng": -104.97688400000001}], "distance": 3262, "postalCode": "80205", "cc": "US", "city": "Denver", "state": "CO", "country": "United States", "formattedAddress": ["3400 Blake St (34th St)", "Denver, CO 80205", "United States"]}, "categories": [{"id": "50327c8591d4c4b30a586d5d", "name": "Brewery", "pluralName": "Breweries", "shortName": "Brewery", "icon": {"prefix": "https://ss3.4sqi.net/img/categories_v2/food/brewery_", "suffix": ".png"}, "primary": true}], "referralId": "v-1599069685", "hasPerk": false}, {"id": "4ec031f52c5b252c19d438cf", "name": "Lone Tree Brewery Co.", "location": {"address": "8222 Park Meadows Dr", "lat": 39.56244685452791, "lng": -104.89288999999407, "labeledLatLngs": [{"label": "display", "lat": 39.56244685452791, "lng": -104.89288999999407}], "distance": 21182, "postalCode": "80124", "cc": "US", "city": "Lone Tree", "state": "CO", "country": "United States", "formattedAddress": ["8222 Park Meadows Dr", "Lone Tree, CO 80124", "United States"]}, "categories": [{"id": "50327c8591d4c4b30a586d5d", "name": "Brewery", "pluralName": "Breweries", "shortName": "Brewery", "icon": {"prefix": "https://ss3.4sqi.net/img/categories_v2/food/brewery_", "suffix": ".png"}, "primary": true}], "venuePage": {"id": "123549078"}, "referralId": "v-1599069685", "hasPerk": false}, {"id": "4f008beaa17cde548a3a370f", "name": "Gaijin 24886 Brewery", "location": {"address": "2443 Vine St", "crossStreet": "23rd & Vine", "lat": 39.75164434698163, "lng": -104.96231138706207, "labeledLatLngs": [{"label": "display", "lat": 39.75164434698163, "lng": -104.96231138706207}], "distance": 2432, "postalCode": "80205", "cc": "US", "city": "Denver", "state": "CO", "country": "United States", "formattedAddress": ["2443 Vine St (23rd & Vine)", "Denver, CO 80205", "United States"]}, "categories": [{"id": "50327c8591d4c4b30a586d5d", "name": "Brewery", "pluralName": "Breweries", "shortName": "Brewery", "icon": {"prefix": "https://ss3.4sqi.net/img/categories_v2/food/brewery_", "suffix": ".png"}, "primary": true}], "referralId": "v-1599069685", "hasPerk": false}, {"id": "56bfdf1ccd103f2da6d2f708", "name": "Seedstock Brewery", "location": {"address": "3610 W Colfax Ave", "lat": 39.74013041136972, "lng": -105.03482357684804, "labeledLatLngs": [{"label": "display", "lat": 39.74013041136972, "lng": -105.03482357684804}], "distance": 4232, "postalCode": "80204", "cc": "US", "city": "Denver", "state": "CO", "country": "United States", "formattedAddress": ["3610 W Colfax Ave", "Denver, CO 80204", "United States"]}, "categories": [{"id": "50327c8591d4c4b30a586d5d", "name": "Brewery", "pluralName": "Breweries", "shortName": "Brewery", "icon": {"prefix": "https://ss3.4sqi.net/img/categories_v2/food/brewery_", "suffix": ".png"}, "primary": true}], "referralId": "v-1599069685", "hasPerk": false}, {"id": "49dfe1d2f964a52024611fe3", "name": "Vine Street Pub & Brewery", "location": {"address": "1700 Vine St", "crossStreet": "at 17th Ave", "lat": 39.74333520746895, "lng": -104.96200914080556, "labeledLatLngs": [{"label": "display", "lat": 39.74333520746895, "lng": -104.96200914080556}], "distance": 2062, "postalCode": "80206", "cc": "US", "city": "Denver", "state": "CO", "country": "United States", "formattedAddress": ["1700 Vine St (at 17th Ave)", "Denver, CO 80206", "United States"]}, "categories": [{"id": "50327c8591d4c4b30a586d5d", "name": "Brewery", "pluralName": "Breweries", "shortName": "Brewery", "icon": {"prefix": "https://ss3.4sqi.net/img/categories_v2/food/brewery_", "suffix": ".png"}, "primary": true}], "referralId": "v-1599069685", "hasPerk": false}, {"id": "4ac6b882f964a52002b620e3", "name": "Rock Bottom Restaurant & Brewery", "location": {"address": "9627 E County Line Rd", "lat": 39.56779045974549, "lng": -104.87397015094757, "labeledLatLngs": [{"label": "display", "lat": 39.56779045974549, "lng": -104.87397015094757}], "distance": 21307, "postalCode": "80112", "cc": "US", "city": "Centennial", "state": "CO", "country": "United States", "formattedAddress": ["9627 E County Line Rd", "Centennial, CO 80112", "United States"]}, "categories": [{"id": "4bf58dd8d48988d14e941735", "name": "American Restaurant", "pluralName": "American Restaurants", "shortName": "American", "icon": {"prefix": "https://ss3.4sqi.net/img/categories_v2/food/default_", "suffix": ".png"}, "primary": true}], "delivery": {"id": "750787", "url": "https://www.grubhub.com/restaurant/rock-bottom-restaurant--brewery-9627-e-county-line-rd-englewood/750787?affiliate=1131&utm_source=foursquare-affiliate-network&utm_medium=affiliate&utm_campaign=1131&utm_content=750787", "provider": {"name": "grubhub", "icon": {"prefix": "https://fastly.4sqi.net/img/general/cap/", "sizes": [40, 50], "name": "/delivery_provider_grubhub_20180129.png"}}}, "referralId": "v-1599069685", "hasPerk": false}, {"id": "5ac9295c67f62b7f2949e4fe", "name": "The Grateful Gnome Sandwich Shoppe & Brewery", "location": {"address": "4369 Stuart St", "crossStreet": "44th Avenue", "lat": 39.7765565797732, "lng": -105.04330122802375, "labeledLatLngs": [{"label": "display", "lat": 39.7765565797732, "lng": -105.04330122802375}], "distance": 6490, "postalCode": "80212", "cc": "US", "neighborhood": "Berkeley", "city": "Denver", "state": "CO", "country": "United States", "formattedAddress": ["4369 Stuart St (44th Avenue)", "Denver, CO 80212", "United States"]}, "categories": [{"id": "50327c8591d4c4b30a586d5d", "name": "Brewery", "pluralName": "Breweries", "shortName": "Brewery", "icon": {"prefix": "https://ss3.4sqi.net/img/categories_v2/food/brewery_", "suffix": ".png"}, "primary": true}], "delivery": {"id": "1787143", "url": "https://www.grubhub.com/restaurant/the-grateful-gnome-4369-stuart-street-denver/1787143?affiliate=1131&utm_source=foursquare-affiliate-network&utm_medium=affiliate&utm_campaign=1131&utm_content=1787143", "provider": {"name": "grubhub", "icon": {"prefix": "https://fastly.4sqi.net/img/general/cap/", "sizes": [40, 50], "name": "/delivery_provider_grubhub_20180129.png"}}}, "referralId": "v-1599069685", "hasPerk": false},